{
  "type" : "FeatureCollection",
  "features":[
  {
    "type": "Feature",
    "geometry": { "type": "Point", "coordinates": [ -66.691205555556, 11.953652777778 ] },
    "properties": { "title": "Aquario Morrito", "_id": "5c7dae89210c24123e0b86c6" }
  },
  {
    "type": "Feature",
    "geometry": { "type": "Point", "coordinates": [ -67.453179359436, 10.533467162735 ] },
    "properties": { "title": "Bajo de Cañaveral", "_id": "5c7dae89210c24123e0b86c7" }
  },
  {
    "type": "Feature",
    "geometry": { "type": "Point", "coordinates": [ -67.52167224884, 10.524195298876 ] },
    "properties": { "title": "Bajo Las Topias", "_id": "5c7dae89210c24123e0b86c9" }
  },
  {
    "type": "Feature",
    "geometry": { "type": "Point", "coordinates": [ -67.54468023777, 10.52544000215 ] },
    "properties": { "title": "Bajo de Chuao", "_id": "5c7dae89210c24123e0b86c8" }
  },
  {
    "type": "Feature",
    "geometry": { "type": "Point", "coordinates": [ -66.85819029808, 10.621340839227 ] },
    "properties": { "title": "Carabelleda - Caribe Soy", "_id": "5c7dae89210c24123e0b86cc" }
  },
  {
    "type": "Feature",
    "geometry": { "type": "Point", "coordinates": [ -66.857085227966, 10.624209070221 ] },
    "properties": { "title": "Caraballeda - Cayo Sal", "_id": "5c7dae89210c24123e0b86cb" }
  },
  {
    "type": "Feature",
    "geometry": { "type": "Point", "coordinates": [ -68.19775, 10.781 ] },
    "properties": { "title": "Cayo Norte", "_id": "5c7dae89210c24123e0b86ce" }
  },
  {
    "type": "Feature",
    "geometry": { "type": "Point", "coordinates": [ -67.240362167358, 10.552104979866 ] },
    "properties": { "title": "Chichiriviche", "_id": "5c7dae89210c24123e0b86d1" }
  },
  {
    "type": "Feature",
    "geometry": { "type": "Point", "coordinates": [ -68.244323730469, 10.729091838365 ] },
    "properties": { "title": "Cayo Sur", "_id": "5c7dae89210c24123e0b86d0" }
  },
  {
    "type": "Feature",
    "geometry": { "type": "Point", "coordinates": [ -68.205828666687, 10.88341874401 ] },
    "properties": { "title": "Cayo Sombrero", "_id": "5c7dae89210c24123e0b86cf" }
  },
  {
    "type": "Feature",
    "geometry": { "type": "Point", "coordinates": [ -63.768736124039, 11.217273377673 ] },
    "properties": { "title": "Cominoto el Hoyo", "_id": "5c7dae89210c24123e0b86d3" }
  },
  {
    "type": "Feature",
    "geometry": { "type": "Point", "coordinates": [ -64.492921829224, 10.360726563645 ] },
    "properties": { "title": "La Picua", "_id": "5c7dae89210c24123e0b86e1" }
  },
  {
    "type": "Feature",
    "geometry": { "type": "Point", "coordinates": [ -66.696158333333, 11.957733333333 ] },
    "properties": { "title": "Gran Roque West", "_id": "5c7dae89210c24123e0b86d8" }
  },
  {
    "type": "Feature",
    "geometry": { "type": "Point", "coordinates": [ -64.159297943115, 10.84070330742 ] },
    "properties": { "title": "Cubagua", "_id": "5c7dae89210c24123e0b86d5" }
  },
  {
    "type": "Feature",
    "geometry": { "type": "Point", "coordinates": [ -63.791170120239, 10.964028219124 ] },
    "properties": { "title": "Farallón", "_id": "5c7dae89210c24123e0b86d6" }
  },
  {
    "type": "Feature",
    "geometry": { "type": "Point", "coordinates": [ -64.605959504843, 10.290173720584 ] },
    "properties": { "title": "La Ensenada", "_id": "5c7dae89210c24123e0b86dd" }
  },
  {
    "type": "Feature",
    "geometry": { "type": "Point", "coordinates": [ -63.73042345047, 11.213890983385 ] },
    "properties": { "title": "Ichao el Tunal", "_id": "5c7dae89210c24123e0b86da" }
  },
  {
    "type": "Feature",
    "geometry": { "type": "Point", "coordinates": [ -67.949355840683, 10.488687497318 ] },
    "properties": { "title": "Isla Larga Puerto Cabello", "_id": "5c7dae89210c24123e0b86db" }
  },
  {
    "type": "Feature",
    "geometry": { "type": "Point", "coordinates": [ -67.529321908951, 10.525186842569 ] },
    "properties": { "title": "Las topias", "_id": "5c7dae89210c24123e0b86e2" }
  },
  {
    "type": "Feature",
    "geometry": { "type": "Point", "coordinates": [ -66.733703613281, 11.925973925909 ] },
    "properties": { "title": "Noronqui", "_id": "5c7dae89210c24123e0b86e4" }
  },
  {
    "type": "Feature",
    "geometry": { "type": "Point", "coordinates": [ -63.729232549667, 11.187116684349 ] },
    "properties": { "title": "Punta Payape", "_id": "5c7dae89210c24123e0b86ec" }
  },
  {
    "type": "Feature",
    "geometry": { "type": "Point", "coordinates": [ -57.851482629776, -31.22603206629 ] },
    "properties": { "title": "Cantera El Terrible (Grande)", "_id": "5c7dae89210c24123e0b86ee" }
  },
  {
    "type": "Feature",
    "geometry": { "type": "Point", "coordinates": [ -63.733888888889, 11.191666666667 ] },
    "properties": { "title": "Puerto Real", "_id": "5c7dae89210c24123e0b86e8" }
  },
  {
    "type": "Feature",
    "geometry": { "type": "Point", "coordinates": [ -63.71887922287, 11.205198027437 ] },
    "properties": { "title": "Punta de Peña", "_id": "5c7dae89210c24123e0b86ea" }
  },
  {
    "type": "Feature",
    "geometry": { "type": "Point", "coordinates": [ -54.630289077759, -34.845014726119 ] },
    "properties": { "title": "Jose Ignacio", "_id": "5c7dae89210c24123e0b86f1" }
  },
  {
    "type": "Feature",
    "geometry": { "type": "Point", "coordinates": [ -57.827149629593, -34.472758632438 ] },
    "properties": { "title": "Cantera Ferrando", "_id": "5c7dae89210c24123e0b86ef" }
  },
  {
    "type": "Feature",
    "geometry": { "type": "Point", "coordinates": [ -54.945394992828, -34.958733924337 ] },
    "properties": { "title": "Playa Mansa Punta del Este", "_id": "5c7dae89210c24123e0b86f3" }
  },
  {
    "type": "Feature",
    "geometry": { "type": "Point", "coordinates": [ -57.854, -31.225166666667 ] },
    "properties": { "title": "Cantera El Terrible", "_id": "5c7dae89210c24123e0b86ed" }
  },
  {
    "type": "Feature",
    "geometry": { "type": "Point", "coordinates": [ -55.281862020493, -34.886899021078 ] },
    "properties": { "title": "Puertito de Don Anselmo", "_id": "5c7dae89210c24123e0b86f4" }
  },
  {
    "type": "Feature",
    "geometry": { "type": "Point", "coordinates": [ -55.262625217438, -34.903249054454 ] },
    "properties": { "title": "Punta Colorada", "_id": "5c7dae89210c24123e0b86f6" }
  },
  {
    "type": "Feature",
    "geometry": { "type": "Point", "coordinates": [ -76.799411773682, -12.472782814793 ] },
    "properties": { "title": "El chuncho ucusana", "_id": "5c7dae89210c24123e0b86f8" }
  },
  {
    "type": "Feature",
    "geometry": { "type": "Point", "coordinates": [ -55.303630828857, -34.855016782138 ] },
    "properties": { "title": "Piriapolis Vertigo", "_id": "5c7dae89210c24123e0b86f2" }
  },
  {
    "type": "Feature",
    "geometry": { "type": "Point", "coordinates": [ -76.80374622345, -12.479989942244 ] },
    "properties": { "title": "El Dado", "_id": "5c7dae89210c24123e0b86f9" }
  },
  {
    "type": "Feature",
    "geometry": { "type": "Point", "coordinates": [ -77.231526374817, -12.127110361013 ] },
    "properties": { "title": "Palomino Island", "_id": "5c7dae89210c24123e0b86fb" }
  },
  {
    "type": "Feature",
    "geometry": { "type": "Point", "coordinates": [ -55.280542373657, -34.879981396723 ] },
    "properties": { "title": "Stella Maris", "_id": "5c7dae89210c24123e0b86f7" }
  },
  {
    "type": "Feature",
    "geometry": { "type": "Point", "coordinates": [ -52.583141326904, 5.2922461345994 ] },
    "properties": { "title": "Ile du diable", "_id": "5c7dae89210c24123e0b86fd" }
  },
  {
    "type": "Feature",
    "geometry": { "type": "Point", "coordinates": [ -76.792931556702, -12.472981851529 ] },
    "properties": { "title": "Punta Naplo", "_id": "5c7dae89210c24123e0b86fc" }
  },
  {
    "type": "Feature",
    "geometry": { "type": "Point", "coordinates": [ -90.278198719025, -0.40466687413949 ] },
    "properties": { "title": "Mosqueras", "_id": "5c7dae89210c24123e0b8710" }
  },
  {
    "type": "Feature",
    "geometry": { "type": "Point", "coordinates": [ -67.474658489227, 10.534690732582 ] },
    "properties": { "title": "Punta de Tuja Oeste", "_id": "5c7dae89210c24123e0b86eb" }
  },
  {
    "type": "Feature",
    "geometry": { "type": "Point", "coordinates": [ -57.725575, -34.444044444444 ] },
    "properties": { "title": "Cantera Riachuelo", "_id": "5c7dae89210c24123e0b86f0" }
  },
  {
    "type": "Feature",
    "geometry": { "type": "Point", "coordinates": [ -55.045516490936, -34.914000639205 ] },
    "properties": { "title": "Punta Ballena", "_id": "5c7dae89210c24123e0b86f5" }
  },
  {
    "type": "Feature",
    "geometry": { "type": "Point", "coordinates": [ -80.835299491882, -1.6778573859184 ] },
    "properties": { "title": "Los Ahorcados", "_id": "5c7dae89210c24123e0b870f" }
  },
  {
    "type": "Feature",
    "geometry": { "type": "Point", "coordinates": [ -80.763759613037, -1.9815213070687 ] },
    "properties": { "title": "El Pelado", "_id": "5c7dae89210c24123e0b8707" }
  },
  {
    "type": "Feature",
    "geometry": { "type": "Point", "coordinates": [ -77.2845, -11.756348 ] },
    "properties": { "title": "Isla grande", "_id": "5c7dae89210c24123e0b86fa" }
  },
  {
    "type": "Feature",
    "geometry": { "type": "Point", "coordinates": [ -81.087255477905, -1.2858074338728 ] },
    "properties": { "title": "Punta Machalilla", "_id": "5c7dae89210c24123e0b8714" }
  },
  {
    "type": "Feature",
    "geometry": { "type": "Point", "coordinates": [ -80.863280296326, -1.5925549836872 ] },
    "properties": { "title": "Isla Salango", "_id": "5c7dae89210c24123e0b870c" }
  },
  {
    "type": "Feature",
    "geometry": { "type": "Point", "coordinates": [ -91.81877374649, 1.3802385327685 ] },
    "properties": { "title": "Anchorage", "_id": "5c7dae89210c24123e0b86ff" }
  },
  {
    "type": "Feature",
    "geometry": { "type": "Point", "coordinates": [ -90.38425, -1.2387333333333 ] },
    "properties": { "title": "Champion", "_id": "5c7dae89210c24123e0b8703" }
  },
  {
    "type": "Feature",
    "geometry": { "type": "Point", "coordinates": [ -75.75888633728, 10.17623260358 ] },
    "properties": { "title": "Alex Place", "_id": "5c7dae89210c24123e0b871f" }
  },
  {
    "type": "Feature",
    "geometry": { "type": "Point", "coordinates": [ -91.371472477913, -0.26020556650398 ] },
    "properties": { "title": "Tagus Cove", "_id": "5c7dae89210c24123e0b871b" }
  },
  {
    "type": "Feature",
    "geometry": { "type": "Point", "coordinates": [ -91.08678817749, -0.60466597594225 ] },
    "properties": { "title": "Elizabeth Bay", "_id": "5c7dae89210c24123e0b8708" }
  },
  {
    "type": "Feature",
    "geometry": { "type": "Point", "coordinates": [ -76.263666666667, 9.4023333333333 ] },
    "properties": { "title": "Burbujas", "_id": "5c7dae89210c24123e0b8724" }
  },
  {
    "type": "Feature",
    "geometry": { "type": "Point", "coordinates": [ -90.290279388428, -0.41164044062973 ] },
    "properties": { "title": "Seymour Channel", "_id": "5c7dae89210c24123e0b8719" }
  },
  {
    "type": "Feature",
    "geometry": { "type": "Point", "coordinates": [ -92.008588314056, 1.6776857981336 ] },
    "properties": { "title": "Tower Rock", "_id": "5c7dae89210c24123e0b871e" }
  },
  {
    "type": "Feature",
    "geometry": { "type": "Point", "coordinates": [ -75.478992462158, 10.477536404672 ] },
    "properties": { "title": "La Bocana", "_id": "5c7dae89210c24123e0b872e" }
  },
  {
    "type": "Feature",
    "geometry": { "type": "Point", "coordinates": [ -75.754680633545, 10.16930512871 ] },
    "properties": { "title": "Caribaru", "_id": "5c7dae89210c24123e0b8725" }
  },
  {
    "type": "Feature",
    "geometry": { "type": "Point", "coordinates": [ -76.1799, 9.3440833333333 ] },
    "properties": { "title": "El Planchãn", "_id": "5c7dae89210c24123e0b8728" }
  },
  {
    "type": "Feature",
    "geometry": { "type": "Point", "coordinates": [ -77.337484359741, 8.6402557658148 ] },
    "properties": { "title": "Grieta Isla Narza", "_id": "5c7dae89210c24123e0b872a" }
  },
  {
    "type": "Feature",
    "geometry": { "type": "Point", "coordinates": [ -74.203065633774, 11.317712596069 ] },
    "properties": { "title": "Morrito Largo", "_id": "5c7dae89210c24123e0b8734" }
  },
  {
    "type": "Feature",
    "geometry": { "type": "Point", "coordinates": [ -75.701293945312, 10.153084112167 ] },
    "properties": { "title": "Imelda", "_id": "5c7dae89210c24123e0b872b" }
  },
  {
    "type": "Feature",
    "geometry": { "type": "Point", "coordinates": [ -75.76849937439, 10.172790005281 ] },
    "properties": { "title": "Isla Pavitos", "_id": "5c7dae89210c24123e0b872d" }
  },
  {
    "type": "Feature",
    "geometry": { "type": "Point", "coordinates": [ -77.324953079224, 8.6205685205117 ] },
    "properties": { "title": "Punta Aguacate", "_id": "5c7dae89210c24123e0b8739" }
  },
  {
    "type": "Feature",
    "geometry": { "type": "Point", "coordinates": [ -74.192883968353, 11.310169510805 ] },
    "properties": { "title": "Salidero", "_id": "5c7dae89210c24123e0b873d" }
  },
  {
    "type": "Feature",
    "geometry": { "type": "Point", "coordinates": [ -75.879722222222, 9.8647222222222 ] },
    "properties": { "title": "Picua", "_id": "5c7dae89210c24123e0b8737" }
  },
  {
    "type": "Feature",
    "geometry": { "type": "Point", "coordinates": [ -75.705070495605, 10.125878270033 ] },
    "properties": { "title": "Punta Baru", "_id": "5c7dae89210c24123e0b873a" }
  },
  {
    "type": "Feature",
    "geometry": { "type": "Point", "coordinates": [ -75.638294219971, 10.354858539129 ] },
    "properties": { "title": "Salmedina", "_id": "5c7dae89210c24123e0b873e" }
  },
  {
    "type": "Feature",
    "geometry": { "type": "Point", "coordinates": [ -71.704, -33.211527777778 ] },
    "properties": { "title": "Bajo Playa Chica", "_id": "5c7dae89210c24123e0b8746" }
  },
  {
    "type": "Feature",
    "geometry": { "type": "Point", "coordinates": [ -81.72926902771, 12.520610081964 ] },
    "properties": { "title": "West view", "_id": "5c7dae89210c24123e0b8742" }
  },
  {
    "type": "Feature",
    "geometry": { "type": "Point", "coordinates": [ -70.530011111111, -23.515522222222 ] },
    "properties": { "title": "Acapulco Beach", "_id": "5c7dae89210c24123e0b8743" }
  },
  {
    "type": "Feature",
    "geometry": { "type": "Point", "coordinates": [ -71.5268, -29.263777777778 ] },
    "properties": { "title": "Bajos del Tiburón", "_id": "5c7dae89210c24123e0b8747" }
  },
  {
    "type": "Feature",
    "geometry": { "type": "Point", "coordinates": [ -70.828803777695, -27.060234092949 ] },
    "properties": { "title": "Blanco Encalada", "_id": "5c7dae89210c24123e0b8748" }
  },
  {
    "type": "Feature",
    "geometry": { "type": "Point", "coordinates": [ -70.620461111111, -23.470705555556 ] },
    "properties": { "title": "Anemone Wall", "_id": "5c7dae89210c24123e0b8744" }
  },
  {
    "type": "Feature",
    "geometry": { "type": "Point", "coordinates": [ -78.817883333333, -33.641127777778 ] },
    "properties": { "title": "El Pangal", "_id": "5c7dae89210c24123e0b8751" }
  },
  {
    "type": "Feature",
    "geometry": { "type": "Point", "coordinates": [ -71.70437335968, -33.191096884729 ] },
    "properties": { "title": "La Isla", "_id": "5c7dae89210c24123e0b8756" }
  },
  {
    "type": "Feature",
    "geometry": { "type": "Point", "coordinates": [ -70.622127777778, -23.474238888889 ] },
    "properties": { "title": "El Acuario de Santa Marêa", "_id": "5c7dae89210c24123e0b874d" }
  },
  {
    "type": "Feature",
    "geometry": { "type": "Point", "coordinates": [ -71.438833333333, -32.47575 ] },
    "properties": { "title": "La Catedral", "_id": "5c7dae89210c24123e0b8755" }
  },
  {
    "type": "Feature",
    "geometry": { "type": "Point", "coordinates": [ -72.646172046661, -41.692799325653 ] },
    "properties": { "title": "Caleta la arena", "_id": "5c7dae89210c24123e0b8749" }
  },
  {
    "type": "Feature",
    "geometry": { "type": "Point", "coordinates": [ -71.455893516541, -32.588080021956 ] },
    "properties": { "title": "La Isla Seca", "_id": "5c7dae89210c24123e0b8757" }
  },
  {
    "type": "Feature",
    "geometry": { "type": "Point", "coordinates": [ -70.427311111111, -23.507605555556 ] },
    "properties": { "title": "La Portada", "_id": "5c7dae89210c24123e0b875a" }
  },
  {
    "type": "Feature",
    "geometry": { "type": "Point", "coordinates": [ -71.700416666667, -33.18825 ] },
    "properties": { "title": "Los Jardines", "_id": "5c7dae89210c24123e0b875c" }
  },
  {
    "type": "Feature",
    "geometry": { "type": "Point", "coordinates": [ -70.61115860939, -23.400677487494 ] },
    "properties": { "title": "El Buey", "_id": "5c7dae89210c24123e0b874e" }
  },
  {
    "type": "Feature",
    "geometry": { "type": "Point", "coordinates": [ -70.40675, -23.640919444444 ] },
    "properties": { "title": "Marêa Elizabeth Wreck", "_id": "5c7dae89210c24123e0b875f" }
  },
  {
    "type": "Feature",
    "geometry": { "type": "Point", "coordinates": [ -71.628971099854, -33.024928706673 ] },
    "properties": { "title": "Remolacador Caupolican", "_id": "5c7dae89210c24123e0b8761" }
  },
  {
    "type": "Feature",
    "geometry": { "type": "Point", "coordinates": [ -71.744230985641, -33.100008413069 ] },
    "properties": { "title": "Lobera de Curaumilla", "_id": "5c7dae89210c24123e0b875b" }
  },
  {
    "type": "Feature",
    "geometry": { "type": "Point", "coordinates": [ -70.591825246811, -23.336453629452 ] },
    "properties": { "title": "Jardines de Copetón", "_id": "5c7dae89210c24123e0b8753" }
  },
  {
    "type": "Feature",
    "geometry": { "type": "Point", "coordinates": [ -70.618888888889, -23.469619444444 ] },
    "properties": { "title": "The Moai Trail", "_id": "5c7dae89210c24123e0b8766" }
  },
  {
    "type": "Feature",
    "geometry": { "type": "Point", "coordinates": [ -70.618911111111, -23.468080555556 ] },
    "properties": { "title": "The Abyss", "_id": "5c7dae89210c24123e0b8764" }
  },
  {
    "type": "Feature",
    "geometry": { "type": "Point", "coordinates": [ -70.612661111111, -23.453791666667 ] },
    "properties": { "title": "Pared Sur", "_id": "5c7dae89210c24123e0b8760" }
  },
  {
    "type": "Feature",
    "geometry": { "type": "Point", "coordinates": [ -71.538741588593, -29.281433898517 ] },
    "properties": { "title": "La Lobera", "_id": "5c7dae89210c24123e0b8758" }
  },
  {
    "type": "Feature",
    "geometry": { "type": "Point", "coordinates": [ -70.614613888889, -23.463347222222 ] },
    "properties": { "title": "The beach", "_id": "5c7dae89210c24123e0b8765" }
  },
  {
    "type": "Feature",
    "geometry": { "type": "Point", "coordinates": [ -48.362717628479, -27.296997602142 ] },
    "properties": { "title": "Baia do Farol", "_id": "5c7dae89210c24123e0b8775" }
  },
  {
    "type": "Feature",
    "geometry": { "type": "Point", "coordinates": [ -56.6, -21.144722222222 ] },
    "properties": { "title": "Abismo Anhumas - Bonito", "_id": "5c7dae89210c24123e0b876a" }
  },
  {
    "type": "Feature",
    "geometry": { "type": "Point", "coordinates": [ -70.614263888889, -23.363472222222 ] },
    "properties": { "title": "Vapor Lima", "_id": "5c7dae89210c24123e0b8769" }
  },
  {
    "type": "Feature",
    "geometry": { "type": "Point", "coordinates": [ -38.010313510895, -12.582533530073 ] },
    "properties": { "title": "Atractores", "_id": "5c7dae89210c24123e0b876f" }
  },
  {
    "type": "Feature",
    "geometry": { "type": "Point", "coordinates": [ -35.156936645508, -5.623160946831 ] },
    "properties": { "title": "Batente das Agulhas", "_id": "5c7dae89210c24123e0b8778" }
  },
  {
    "type": "Feature",
    "geometry": { "type": "Point", "coordinates": [ -32.395033836365, -3.8120153265449 ] },
    "properties": { "title": "Cagarras", "_id": "5c7dae89210c24123e0b877d" }
  },
  {
    "type": "Feature",
    "geometry": { "type": "Point", "coordinates": [ -47.313222885132, -20.121325278615 ] },
    "properties": { "title": "Canyon do Guarda Sol", "_id": "5c7dae89210c24123e0b8782" }
  },
  {
    "type": "Feature",
    "geometry": { "type": "Point", "coordinates": [ -44.314013888889, -23.132566666667 ] },
    "properties": { "title": "Boca do Boqueirao", "_id": "5c7dae89210c24123e0b8779" }
  },
  {
    "type": "Feature",
    "geometry": { "type": "Point", "coordinates": [ -71.542694444444, -29.234997222222 ] },
    "properties": { "title": "Roca Alfa", "_id": "5c7dae89210c24123e0b8762" }
  },
  {
    "type": "Feature",
    "geometry": { "type": "Point", "coordinates": [ -45.122051239014, -23.801051951752 ] },
    "properties": { "title": "Ilha de Buzios", "_id": "5c7dae89210c24123e0b8792" }
  },
  {
    "type": "Feature",
    "geometry": { "type": "Point", "coordinates": [ -32.478055555556, -3.8519444444444 ] },
    "properties": { "title": "Corveta V-17 Ipiranga", "_id": "5c7dae89210c24123e0b8787" }
  },
  {
    "type": "Feature",
    "geometry": { "type": "Point", "coordinates": [ -41.986398696899, -23.004342554958 ] },
    "properties": { "title": "Buraco do Mero", "_id": "5c7dae89210c24123e0b877a" }
  },
  {
    "type": "Feature",
    "geometry": { "type": "Point", "coordinates": [ -75.759143829346, 10.175218836158 ] },
    "properties": { "title": "Isla Gloria", "_id": "5c7dae89210c24123e0b872c" }
  },
  {
    "type": "Feature",
    "geometry": { "type": "Point", "coordinates": [ -56.566666666667, -21.133333333333 ] },
    "properties": { "title": "Gruta Mimoso", "_id": "5c7dae89210c24123e0b878c" }
  },
  {
    "type": "Feature",
    "geometry": { "type": "Point", "coordinates": [ -48.422, -27.25115 ] },
    "properties": { "title": "Calhau de S o Pedro", "_id": "5c7dae89210c24123e0b877f" }
  },
  {
    "type": "Feature",
    "geometry": { "type": "Point", "coordinates": [ -41.99298620224, -22.986762792624 ] },
    "properties": { "title": "Enseada da Praia Vermelha", "_id": "5c7dae89210c24123e0b8789" }
  },
  {
    "type": "Feature",
    "geometry": { "type": "Point", "coordinates": [ -44.634532928467, -23.175555991604 ] },
    "properties": { "title": "Ilha dos Ganchos", "_id": "5c7dae89210c24123e0b879b" }
  },
  {
    "type": "Feature",
    "geometry": { "type": "Point", "coordinates": [ -44.266, -23.109566666667 ] },
    "properties": { "title": "Helicoptero", "_id": "5c7dae89210c24123e0b878e" }
  },
  {
    "type": "Feature",
    "geometry": { "type": "Point", "coordinates": [ -41.821646690369, -22.775113138323 ] },
    "properties": { "title": "Ilha de ëncora", "_id": "5c7dae89210c24123e0b8793" }
  },
  {
    "type": "Feature",
    "geometry": { "type": "Point", "coordinates": [ -44.577916666667, -23.186733333333 ] },
    "properties": { "title": "Ilha dos Meros - Ponta Sul", "_id": "5c7dae89210c24123e0b879c" }
  },
  {
    "type": "Feature",
    "geometry": { "type": "Point", "coordinates": [ -44.9041, -23.42475 ] },
    "properties": { "title": "Ilha Rapada", "_id": "5c7dae89210c24123e0b87a2" }
  },
  {
    "type": "Feature",
    "geometry": { "type": "Point", "coordinates": [ -38.531970977783, -12.972525650695 ] },
    "properties": { "title": "Bahia de Salvador", "_id": "5c7dae89210c24123e0b8771" }
  },
  {
    "type": "Feature",
    "geometry": { "type": "Point", "coordinates": [ -44.239447222222, -23.08225 ] },
    "properties": { "title": "Lagoa Azul", "_id": "5c7dae89210c24123e0b87ac" }
  },
  {
    "type": "Feature",
    "geometry": { "type": "Point", "coordinates": [ -44.323397222222, -23.1374 ] },
    "properties": { "title": "Lagoa Verde", "_id": "5c7dae89210c24123e0b87b1" }
  },
  {
    "type": "Feature",
    "geometry": { "type": "Point", "coordinates": [ -44.346333333333, -23.137483333333 ] },
    "properties": { "title": "Lage Branca", "_id": "5c7dae89210c24123e0b87a6" }
  },
  {
    "type": "Feature",
    "geometry": { "type": "Point", "coordinates": [ -32.37979888916, -3.8049499321784 ] },
    "properties": { "title": "Cabeco das Cordas", "_id": "5c7dae89210c24123e0b877b" }
  },
  {
    "type": "Feature",
    "geometry": { "type": "Point", "coordinates": [ -44.857716666667, -23.423555555556 ] },
    "properties": { "title": "Miriquites", "_id": "5c7dae89210c24123e0b87bb" }
  },
  {
    "type": "Feature",
    "geometry": { "type": "Point", "coordinates": [ -47.78904274106, -15.796054010815 ] },
    "properties": { "title": "Lago Paranoö", "_id": "5c7dae89210c24123e0b87ab" }
  },
  {
    "type": "Feature",
    "geometry": { "type": "Point", "coordinates": [ -46.162333333333, -24.328916666667 ] },
    "properties": { "title": "Calhaus", "_id": "5c7dae89210c24123e0b8780" }
  },
  {
    "type": "Feature",
    "geometry": { "type": "Point", "coordinates": [ -43.963358402252, -20.168847255397 ] },
    "properties": { "title": "Lagoa dos Ingleses", "_id": "5c7dae89210c24123e0b87b0" }
  },
  {
    "type": "Feature",
    "geometry": { "type": "Point", "coordinates": [ -34.747847222222, -8.1692027777778 ] },
    "properties": { "title": "Minuano", "_id": "5c7dae89210c24123e0b87ba" }
  },
  {
    "type": "Feature",
    "geometry": { "type": "Point", "coordinates": [ -35.716666666667, -9.85 ] },
    "properties": { "title": "Naufrágio do Dragão", "_id": "5c7dae89210c24123e0b87bf" }
  },
  {
    "type": "Feature",
    "geometry": { "type": "Point", "coordinates": [ -44.283333333333, -23.117833333333 ] },
    "properties": { "title": "Pinguino", "_id": "5c7dae89210c24123e0b87cf" }
  },
  {
    "type": "Feature",
    "geometry": { "type": "Point", "coordinates": [ -48.357181549072, -27.302002884693 ] },
    "properties": { "title": "Ponta do Farol", "_id": "5c7dae89210c24123e0b87d4" }
  },
  {
    "type": "Feature",
    "geometry": { "type": "Point", "coordinates": [ -34.730616666667, -7.9494833333333 ] },
    "properties": { "title": "Chata de Noronha", "_id": "5c7dae89210c24123e0b8785" }
  },
  {
    "type": "Feature",
    "geometry": { "type": "Point", "coordinates": [ -48.512626290321, -27.125982079084 ] },
    "properties": { "title": "Parque da Galheta", "_id": "5c7dae89210c24123e0b87c9" }
  },
  {
    "type": "Feature",
    "geometry": { "type": "Point", "coordinates": [ -38.087131977081, -4.2244445218754 ] },
    "properties": { "title": "Lagoa do Uruaú", "_id": "5c7dae89210c24123e0b87af" }
  },
  {
    "type": "Feature",
    "geometry": { "type": "Point", "coordinates": [ -48.521000146866, -27.117526359135 ] },
    "properties": { "title": "Estaleiro", "_id": "5c7dae89210c24123e0b878a" }
  },
  {
    "type": "Feature",
    "geometry": { "type": "Point", "coordinates": [ -47.525966666667, -23.653883333333 ] },
    "properties": { "title": "Pedreira", "_id": "5c7dae89210c24123e0b87ce" }
  },
  {
    "type": "Feature",
    "geometry": { "type": "Point", "coordinates": [ -45.069179534912, -23.536133713375 ] },
    "properties": { "title": "Ilha Anchieta", "_id": "5c7dae89210c24123e0b878f" }
  },
  {
    "type": "Feature",
    "geometry": { "type": "Point", "coordinates": [ -34.7337, -8.07875 ] },
    "properties": { "title": "Mercurius", "_id": "5c7dae89210c24123e0b87b9" }
  },
  {
    "type": "Feature",
    "geometry": { "type": "Point", "coordinates": [ -48.506746888161, -27.111586442483 ] },
    "properties": { "title": "Ponta de Porto Belo", "_id": "5c7dae89210c24123e0b87d3" }
  },
  {
    "type": "Feature",
    "geometry": { "type": "Point", "coordinates": [ -42.02002286911, -22.96040861647 ] },
    "properties": { "title": "Prainha", "_id": "5c7dae89210c24123e0b87dd" }
  },
  {
    "type": "Feature",
    "geometry": { "type": "Point", "coordinates": [ -45.459794998169, -23.923267070054 ] },
    "properties": { "title": "Regiã o dos naufrágios", "_id": "5c7dae89210c24123e0b87e2" }
  },
  {
    "type": "Feature",
    "geometry": { "type": "Point", "coordinates": [ -34.696166666667, -8.0172333333333 ] },
    "properties": { "title": "Naufrágio Reboque", "_id": "5c7dae89210c24123e0b87c3" }
  },
  {
    "type": "Feature",
    "geometry": { "type": "Point", "coordinates": [ -47.414996623993, -20.068790548465 ] },
    "properties": { "title": "Ponte Velha Submersa", "_id": "5c7dae89210c24123e0b87d9" }
  },
  {
    "type": "Feature",
    "geometry": { "type": "Point", "coordinates": [ -46.672016666667, -24.481 ] },
    "properties": { "title": "Queimada Grande", "_id": "5c7dae89210c24123e0b87de" }
  },
  {
    "type": "Feature",
    "geometry": { "type": "Point", "coordinates": [ -35.183333333333, -5.1666666666667 ] },
    "properties": { "title": "Risca do Zumbi - Risca Seca", "_id": "5c7dae89210c24123e0b87e8" }
  },
  {
    "type": "Feature",
    "geometry": { "type": "Point", "coordinates": [ -44.326915740967, -23.13917610508 ] },
    "properties": { "title": "Ponta da Ilha Longa", "_id": "5c7dae89210c24123e0b87d2" }
  },
  {
    "type": "Feature",
    "geometry": { "type": "Point", "coordinates": [ -41.990966666667, -22.9631 ] },
    "properties": { "title": "Ilha dos Porcos - Lado de Fora", "_id": "5c7dae89210c24123e0b879e" }
  },
  {
    "type": "Feature",
    "geometry": { "type": "Point", "coordinates": [ -41.9818, -22.978866666667 ] },
    "properties": { "title": "Ponta Leste", "_id": "5c7dae89210c24123e0b87d7" }
  },
  {
    "type": "Feature",
    "geometry": { "type": "Point", "coordinates": [ -45.017230510712, -23.749584339283 ] },
    "properties": { "title": "Ilha Vitoria", "_id": "5c7dae89210c24123e0b87a3" }
  },
  {
    "type": "Feature",
    "geometry": { "type": "Point", "coordinates": [ -48.496956825256, -27.145703241404 ] },
    "properties": { "title": "Praia do Ribeiro", "_id": "5c7dae89210c24123e0b87dc" }
  },
  {
    "type": "Feature",
    "geometry": { "type": "Point", "coordinates": [ -41.999166666667, -22.9652 ] },
    "properties": { "title": "Saco do Cardeiro", "_id": "5c7dae89210c24123e0b87ec" }
  },
  {
    "type": "Feature",
    "geometry": { "type": "Point", "coordinates": [ -41.993633333333, -22.96495 ] },
    "properties": { "title": "Saltador - Ilha dos Porcos", "_id": "5c7dae89210c24123e0b87f1" }
  },
  {
    "type": "Feature",
    "geometry": { "type": "Point", "coordinates": [ -34.779883333333, -8.1004666666667 ] },
    "properties": { "title": "Servemar I", "_id": "5c7dae89210c24123e0b87f6" }
  },
  {
    "type": "Feature",
    "geometry": { "type": "Point", "coordinates": [ -46.677775382996, -24.482286085354 ] },
    "properties": { "title": "Tocantins wreck", "_id": "5c7dae89210c24123e0b87fb" }
  },
  {
    "type": "Feature",
    "geometry": { "type": "Point", "coordinates": [ -42.005433333333, -22.961416666667 ] },
    "properties": { "title": "Saco do Cherne", "_id": "5c7dae89210c24123e0b87ed" }
  },
  {
    "type": "Feature",
    "geometry": { "type": "Point", "coordinates": [ -48.370056152344, -27.288197291617 ] },
    "properties": { "title": "Santa Catarina", "_id": "5c7dae89210c24123e0b87f2" }
  },
  {
    "type": "Feature",
    "geometry": { "type": "Point", "coordinates": [ -34.762777777778, -8.1219444444444 ] },
    "properties": { "title": "Servemar X", "_id": "5c7dae89210c24123e0b87f7" }
  },
  {
    "type": "Feature",
    "geometry": { "type": "Point", "coordinates": [ -58.599856495857, -27.323218009273 ] },
    "properties": { "title": "Boyas Blancas", "_id": "5c7dae89210c24123e0b880a" }
  },
  {
    "type": "Feature",
    "geometry": { "type": "Point", "coordinates": [ -71.562269926071, -41.071979071572 ] },
    "properties": { "title": "Arroyo angostura", "_id": "5c7dae89210c24123e0b8801" }
  },
  {
    "type": "Feature",
    "geometry": { "type": "Point", "coordinates": [ -45.78200340271, -23.87135739631 ] },
    "properties": { "title": "Montão de Trigo", "_id": "5c7dae89210c24123e0b87bc" }
  },
  {
    "type": "Feature",
    "geometry": { "type": "Point", "coordinates": [ -57.510681152344, -38.115245814002 ] },
    "properties": { "title": "Banco del Medio", "_id": "5c7dae89210c24123e0b8806" }
  },
  {
    "type": "Feature",
    "geometry": { "type": "Point", "coordinates": [ -59.460250139238, -1.9029670157286 ] },
    "properties": { "title": "Pedras", "_id": "5c7dae89210c24123e0b87cb" }
  },
  {
    "type": "Feature",
    "geometry": { "type": "Point", "coordinates": [ -64.274262785912, -32.181315230976 ] },
    "properties": { "title": "Dique Piedras Moras - La Bomba", "_id": "5c7dae89210c24123e0b8810" }
  },
  {
    "type": "Feature",
    "geometry": { "type": "Point", "coordinates": [ -34.75, -8.0666666666667 ] },
    "properties": { "title": "Taurus", "_id": "5c7dae89210c24123e0b87fa" }
  },
  {
    "type": "Feature",
    "geometry": { "type": "Point", "coordinates": [ -40.38985, -20.689866666667 ] },
    "properties": { "title": "Victory 8B", "_id": "5c7dae89210c24123e0b87ff" }
  },
  {
    "type": "Feature",
    "geometry": { "type": "Point", "coordinates": [ -35.114707946777, -5.9565340821958 ] },
    "properties": { "title": "Pirangi", "_id": "5c7dae89210c24123e0b87d0" }
  },
  {
    "type": "Feature",
    "geometry": { "type": "Point", "coordinates": [ -48.36758852005, -27.294642657813 ] },
    "properties": { "title": "Ponta do Meio", "_id": "5c7dae89210c24123e0b87d5" }
  },
  {
    "type": "Feature",
    "geometry": { "type": "Point", "coordinates": [ -57.458936111111, -38.240436111111 ] },
    "properties": { "title": "Banco de Afuera", "_id": "5c7dae89210c24123e0b8804" }
  },
  {
    "type": "Feature",
    "geometry": { "type": "Point", "coordinates": [ -34.997569444444, -8.5126694444444 ] },
    "properties": { "title": "Porto de Galinhas", "_id": "5c7dae89210c24123e0b87da" }
  },
  {
    "type": "Feature",
    "geometry": { "type": "Point", "coordinates": [ -40.366183333333, -20.677816666667 ] },
    "properties": { "title": "Rasa Island", "_id": "5c7dae89210c24123e0b87df" }
  },
  {
    "type": "Feature",
    "geometry": { "type": "Point", "coordinates": [ -32.392408333333, -3.8136722222222 ] },
    "properties": { "title": "Ressureta", "_id": "5c7dae89210c24123e0b87e4" }
  },
  {
    "type": "Feature",
    "geometry": { "type": "Point", "coordinates": [ -41.98825, -22.983016666667 ] },
    "properties": { "title": "Saco da Abobora - Norte", "_id": "5c7dae89210c24123e0b87e9" }
  },
  {
    "type": "Feature",
    "geometry": { "type": "Point", "coordinates": [ -65.062777777778, -40.863055555556 ] },
    "properties": { "title": "Don Felix", "_id": "5c7dae89210c24123e0b8814" }
  },
  {
    "type": "Feature",
    "geometry": { "type": "Point", "coordinates": [ -68.520602120293, -34.835990457998 ] },
    "properties": { "title": "Dique Valle Grande", "_id": "5c7dae89210c24123e0b8813" }
  },
  {
    "type": "Feature",
    "geometry": { "type": "Point", "coordinates": [ -68.231706619263, -54.859686763302 ] },
    "properties": { "title": "Isla Mary Ann", "_id": "5c7dae89210c24123e0b881e" }
  },
  {
    "type": "Feature",
    "geometry": { "type": "Point", "coordinates": [ -71.301666666667, -38.938611111111 ] },
    "properties": { "title": "Isla Lepen", "_id": "5c7dae89210c24123e0b881d" }
  },
  {
    "type": "Feature",
    "geometry": { "type": "Point", "coordinates": [ -71.622319221497, -40.151079132269 ] },
    "properties": { "title": "Lago Lacar Nonthue", "_id": "5c7dae8a210c24123e0b8828" }
  },
  {
    "type": "Feature",
    "geometry": { "type": "Point", "coordinates": [ -64.861993789673, -42.83534933437 ] },
    "properties": { "title": "Loberia", "_id": "5c7dae8a210c24123e0b882d" }
  },
  {
    "type": "Feature",
    "geometry": { "type": "Point", "coordinates": [ -58.551169037819, -27.302941945894 ] },
    "properties": { "title": "Paraje Rincãn", "_id": "5c7dae8a210c24123e0b8832" }
  },
  {
    "type": "Feature",
    "geometry": { "type": "Point", "coordinates": [ -34.7219, -8.07545 ] },
    "properties": { "title": "Saveiros", "_id": "5c7dae89210c24123e0b87f3" }
  },
  {
    "type": "Feature",
    "geometry": { "type": "Point", "coordinates": [ -64.266242980957, -42.62429674567 ] },
    "properties": { "title": "Punta Pardelas", "_id": "5c7dae8a210c24123e0b883c" }
  },
  {
    "type": "Feature",
    "geometry": { "type": "Point", "coordinates": [ -58.340224027634, -34.670871832629 ] },
    "properties": { "title": "Tosquera La Saladita", "_id": "5c7dae8a210c24123e0b8841" }
  },
  {
    "type": "Feature",
    "geometry": { "type": "Point", "coordinates": [ 167.27031666667, -15.565833333333 ] },
    "properties": { "title": "Chails Reef", "_id": "5c7dae8a210c24123e0b8846" }
  },
  {
    "type": "Feature",
    "geometry": { "type": "Point", "coordinates": [ 168.28308105469, -17.708626933572 ] },
    "properties": { "title": "Konanda", "_id": "5c7dae8a210c24123e0b884b" }
  },
  {
    "type": "Feature",
    "geometry": { "type": "Point", "coordinates": [ -77.347183227539, 8.6505232748474 ] },
    "properties": { "title": "Peñon Bobo", "_id": "5c7dae89210c24123e0b8736" }
  },
  {
    "type": "Feature",
    "geometry": { "type": "Point", "coordinates": [ -77.357482910156, 8.6685119544636 ] },
    "properties": { "title": "Punta del Cabo", "_id": "5c7dae89210c24123e0b873b" }
  },
  {
    "type": "Feature",
    "geometry": { "type": "Point", "coordinates": [ -71.473916666667, -32.551866666667 ] },
    "properties": { "title": "Bajo el Cerro de la Cruz", "_id": "5c7dae89210c24123e0b8745" }
  },
  {
    "type": "Feature",
    "geometry": { "type": "Point", "coordinates": [ -72.106586694717, -39.534485217074 ] },
    "properties": { "title": "Cantil del Mareado", "_id": "5c7dae89210c24123e0b874a" }
  },
  {
    "type": "Feature",
    "geometry": { "type": "Point", "coordinates": [ -71.702138888889, -33.190555555556 ] },
    "properties": { "title": "El Falucho", "_id": "5c7dae89210c24123e0b874f" }
  },
  {
    "type": "Feature",
    "geometry": { "type": "Point", "coordinates": [ -71.702111111111, -33.191638888889 ] },
    "properties": { "title": "La Caldera", "_id": "5c7dae89210c24123e0b8754" }
  },
  {
    "type": "Feature",
    "geometry": { "type": "Point", "coordinates": [ -71.542212367058, -29.250416817198 ] },
    "properties": { "title": "La Pared", "_id": "5c7dae89210c24123e0b8759" }
  },
  {
    "type": "Feature",
    "geometry": { "type": "Point", "coordinates": [ -69.869731664658, -35.159985875663 ] },
    "properties": { "title": "La Nina Encantada", "_id": "5c7dae8a210c24123e0b8822" }
  },
  {
    "type": "Feature",
    "geometry": { "type": "Point", "coordinates": [ -71.490440368652, -40.480903709054 ] },
    "properties": { "title": "Lago Falkner", "_id": "5c7dae8a210c24123e0b8827" }
  },
  {
    "type": "Feature",
    "geometry": { "type": "Point", "coordinates": [ -68.191344738007, -54.818825657046 ] },
    "properties": { "title": "Estancia Tunel", "_id": "5c7dae89210c24123e0b881a" }
  },
  {
    "type": "Feature",
    "geometry": { "type": "Point", "coordinates": [ -70.206563472748, -35.159371880204 ] },
    "properties": { "title": "Laguna Valle Hermoso", "_id": "5c7dae8a210c24123e0b882c" }
  },
  {
    "type": "Feature",
    "geometry": { "type": "Point", "coordinates": [ -67.599595785141, -46.038334232237 ] },
    "properties": { "title": "La Tranquera", "_id": "5c7dae8a210c24123e0b8824" }
  },
  {
    "type": "Feature",
    "geometry": { "type": "Point", "coordinates": [ -69.195070266724, -35.728537691508 ] },
    "properties": { "title": "Pozos de Carapacho", "_id": "5c7dae8a210c24123e0b8838" }
  },
  {
    "type": "Feature",
    "geometry": { "type": "Point", "coordinates": [ -64.277777777778, -42.615 ] },
    "properties": { "title": "Punto Piramide", "_id": "5c7dae8a210c24123e0b883d" }
  },
  {
    "type": "Feature",
    "geometry": { "type": "Point", "coordinates": [ -58.682774305344, -34.401695797758 ] },
    "properties": { "title": "Tosquera Tarola", "_id": "5c7dae8a210c24123e0b8842" }
  },
  {
    "type": "Feature",
    "geometry": { "type": "Point", "coordinates": [ -71.395447254181, -41.119880777956 ] },
    "properties": { "title": "Playa Bonita", "_id": "5c7dae8a210c24123e0b8836" }
  },
  {
    "type": "Feature",
    "geometry": { "type": "Point", "coordinates": [ 167.21483333333, -15.54105 ] },
    "properties": { "title": "Cindy's Reef", "_id": "5c7dae8a210c24123e0b8847" }
  },
  {
    "type": "Feature",
    "geometry": { "type": "Point", "coordinates": [ -71.345549, -43.082244 ] },
    "properties": { "title": "Rio Futaleufu", "_id": "5c7dae8a210c24123e0b8840" }
  },
  {
    "type": "Feature",
    "geometry": { "type": "Point", "coordinates": [ 168.28548431396, -17.704784000369 ] },
    "properties": { "title": "Konanda Reef", "_id": "5c7dae8a210c24123e0b884c" }
  },
  {
    "type": "Feature",
    "geometry": { "type": "Point", "coordinates": [ 168.25750350952, -17.78170873999 ] },
    "properties": { "title": "Cathedral", "_id": "5c7dae8a210c24123e0b8845" }
  },
  {
    "type": "Feature",
    "geometry": { "type": "Point", "coordinates": [ 168.19313049316, -17.560573826992 ] },
    "properties": { "title": "Owens Reef", "_id": "5c7dae8a210c24123e0b8851" }
  },
  {
    "type": "Feature",
    "geometry": { "type": "Point", "coordinates": [ 168.29651666667, -17.7554 ] },
    "properties": { "title": "Star Of Russia", "_id": "5c7dae8a210c24123e0b8856" }
  },
  {
    "type": "Feature",
    "geometry": { "type": "Point", "coordinates": [ -174.34333333333, -19.775555555556 ] },
    "properties": { "title": "Faleanga", "_id": "5c7dae8a210c24123e0b885b" }
  },
  {
    "type": "Feature",
    "geometry": { "type": "Point", "coordinates": [ 167.26138333333, -15.51265 ] },
    "properties": { "title": "Sol's Reef", "_id": "5c7dae8a210c24123e0b8854" }
  },
  {
    "type": "Feature",
    "geometry": { "type": "Point", "coordinates": [ -174.51805555556, -19.741666666667 ] },
    "properties": { "title": "Soft Rock", "_id": "5c7dae8a210c24123e0b8860" }
  },
  {
    "type": "Feature",
    "geometry": { "type": "Point", "coordinates": [ 159.87003333333, -9.3787833333333 ] },
    "properties": { "title": "Kinugawa Maru - Bonegi II", "_id": "5c7dae8a210c24123e0b8865" }
  },
  {
    "type": "Feature",
    "geometry": { "type": "Point", "coordinates": [ -171.78282737732, -14.014775583987 ] },
    "properties": { "title": "The Aquarium", "_id": "5c7dae8a210c24123e0b886a" }
  },
  {
    "type": "Feature",
    "geometry": { "type": "Point", "coordinates": [ 150.26000976562, -5.3972734076909 ] },
    "properties": { "title": "Inglis", "_id": "5c7dae8a210c24123e0b8874" }
  },
  {
    "type": "Feature",
    "geometry": { "type": "Point", "coordinates": [ 134.43373333333, 7.3385166666667 ] },
    "properties": { "title": "Amatsu Maru", "_id": "5c7dae8a210c24123e0b887e" }
  },
  {
    "type": "Feature",
    "geometry": { "type": "Point", "coordinates": [ 134.22063589096, 7.134002233109 ] },
    "properties": { "title": "Blue Corner", "_id": "5c7dae8a210c24123e0b8883" }
  },
  {
    "type": "Feature",
    "geometry": { "type": "Point", "coordinates": [ 134.4395, 7.3403666666667 ] },
    "properties": { "title": "Chuyo Maru", "_id": "5c7dae8a210c24123e0b8888" }
  },
  {
    "type": "Feature",
    "geometry": { "type": "Point", "coordinates": [ 134.27, 7.11795 ] },
    "properties": { "title": "German Wall", "_id": "5c7dae8a210c24123e0b8892" }
  },
  {
    "type": "Feature",
    "geometry": { "type": "Point", "coordinates": [ 134.44826666667, 7.3690666666667 ] },
    "properties": { "title": "Jake Seaplane", "_id": "5c7dae8a210c24123e0b8897" }
  },
  {
    "type": "Feature",
    "geometry": { "type": "Point", "coordinates": [ 134.4159, 7.2898833333333 ] },
    "properties": { "title": "Lost Lake", "_id": "5c7dae8a210c24123e0b889c" }
  },
  {
    "type": "Feature",
    "geometry": { "type": "Point", "coordinates": [ -38.926448822021, -13.938565608113 ] },
    "properties": { "title": "Taipus de Fora", "_id": "5c7dae89210c24123e0b87f8" }
  },
  {
    "type": "Feature",
    "geometry": { "type": "Point", "coordinates": [ 132.30626666667, 4.3076333333333 ] },
    "properties": { "title": "Merir Cave", "_id": "5c7dae8a210c24123e0b88a1" }
  },
  {
    "type": "Feature",
    "geometry": { "type": "Point", "coordinates": [ -34.702533333333, -7.5797666666667 ] },
    "properties": { "title": "Vapor Bahia", "_id": "5c7dae89210c24123e0b87fd" }
  },
  {
    "type": "Feature",
    "geometry": { "type": "Point", "coordinates": [ 134.237844944, 7.103298781729 ] },
    "properties": { "title": "New Drop Off", "_id": "5c7dae8a210c24123e0b88a6" }
  },
  {
    "type": "Feature",
    "geometry": { "type": "Point", "coordinates": [ -65.700742006302, -44.800771099781 ] },
    "properties": { "title": "Bahia Camarones", "_id": "5c7dae89210c24123e0b8802" }
  },
  {
    "type": "Feature",
    "geometry": { "type": "Point", "coordinates": [ -60.1402759552, -36.902205025992 ] },
    "properties": { "title": "Cantera Villa Monica", "_id": "5c7dae89210c24123e0b880c" }
  },
  {
    "type": "Feature",
    "geometry": { "type": "Point", "coordinates": [ 167.24563333333, -15.52575 ] },
    "properties": { "title": "One Million Dollar Point", "_id": "5c7dae8a210c24123e0b8850" }
  },
  {
    "type": "Feature",
    "geometry": { "type": "Point", "coordinates": [ 167.23521666667, -15.5242 ] },
    "properties": { "title": "SS President Coolidge", "_id": "5c7dae8a210c24123e0b8855" }
  },
  {
    "type": "Feature",
    "geometry": { "type": "Point", "coordinates": [ -64.987370967865, -42.668276605479 ] },
    "properties": { "title": "El Doradillo", "_id": "5c7dae89210c24123e0b8816" }
  },
  {
    "type": "Feature",
    "geometry": { "type": "Point", "coordinates": [ -174.51972222222, -19.817777777778 ] },
    "properties": { "title": "Akoteu", "_id": "5c7dae8a210c24123e0b885a" }
  },
  {
    "type": "Feature",
    "geometry": { "type": "Point", "coordinates": [ -174.34333333333, -19.925 ] },
    "properties": { "title": "Sisters", "_id": "5c7dae8a210c24123e0b885f" }
  },
  {
    "type": "Feature",
    "geometry": { "type": "Point", "coordinates": [ 159.68085050583, -9.2528984133201 ] },
    "properties": { "title": "Japanese Sub I21", "_id": "5c7dae8a210c24123e0b8864" }
  },
  {
    "type": "Feature",
    "geometry": { "type": "Point", "coordinates": [ 134.22565, 7.12975 ] },
    "properties": { "title": "Ngemelis Coral Gardens", "_id": "5c7dae8a210c24123e0b88ab" }
  },
  {
    "type": "Feature",
    "geometry": { "type": "Point", "coordinates": [ 134.38646666667, 7.1320333333333 ] },
    "properties": { "title": "Ngerong Channel", "_id": "5c7dae8a210c24123e0b88b0" }
  },
  {
    "type": "Feature",
    "geometry": { "type": "Point", "coordinates": [ 134.21966666667, 6.98455 ] },
    "properties": { "title": "Peleliu Tip", "_id": "5c7dae8a210c24123e0b88b5" }
  },
  {
    "type": "Feature",
    "geometry": { "type": "Point", "coordinates": [ 134.43061666667, 7.3505833333333 ] },
    "properties": { "title": "Raizan Maru", "_id": "5c7dae8a210c24123e0b88ba" }
  },
  {
    "type": "Feature",
    "geometry": { "type": "Point", "coordinates": [ 150.71639299393, -2.7515905387526 ] },
    "properties": { "title": "Albatross passage", "_id": "5c7dae8a210c24123e0b886e" }
  },
  {
    "type": "Feature",
    "geometry": { "type": "Point", "coordinates": [ -64.32621717453, -31.329244197563 ] },
    "properties": { "title": "Laguna Azul", "_id": "5c7dae8a210c24123e0b882a" }
  },
  {
    "type": "Feature",
    "geometry": { "type": "Point", "coordinates": [ 147.06642150879, -6.8862087150364 ] },
    "properties": { "title": "Halfway Reef", "_id": "5c7dae8a210c24123e0b8873" }
  },
  {
    "type": "Feature",
    "geometry": { "type": "Point", "coordinates": [ 134.3181, 7.1480333333333 ] },
    "properties": { "title": "2 Dogs Island", "_id": "5c7dae8a210c24123e0b887d" }
  },
  {
    "type": "Feature",
    "geometry": { "type": "Point", "coordinates": [ 134.253, 7.10455 ] },
    "properties": { "title": "Big Drop-Off", "_id": "5c7dae8a210c24123e0b8882" }
  },
  {
    "type": "Feature",
    "geometry": { "type": "Point", "coordinates": [ 134.45065, 7.3408 ] },
    "properties": { "title": "Chandelier Cave", "_id": "5c7dae8a210c24123e0b8887" }
  },
  {
    "type": "Feature",
    "geometry": { "type": "Point", "coordinates": [ 134.22565, 7.12975 ] },
    "properties": { "title": "Dexters Wall", "_id": "5c7dae8a210c24123e0b888c" }
  },
  {
    "type": "Feature",
    "geometry": { "type": "Point", "coordinates": [ 134.2804, 7.1260833333333 ] },
    "properties": { "title": "German Channel", "_id": "5c7dae8a210c24123e0b8891" }
  },
  {
    "type": "Feature",
    "geometry": { "type": "Point", "coordinates": [ 134.42048333333, 7.2941333333333 ] },
    "properties": { "title": "Iro Maru", "_id": "5c7dae8a210c24123e0b8896" }
  },
  {
    "type": "Feature",
    "geometry": { "type": "Point", "coordinates": [ 134.31653333333, 7.1389833333333 ] },
    "properties": { "title": "Long Beach", "_id": "5c7dae8a210c24123e0b889b" }
  },
  {
    "type": "Feature",
    "geometry": { "type": "Point", "coordinates": [ 134.47833333333, 7.3038333333333 ] },
    "properties": { "title": "Mandarinfish Lake", "_id": "5c7dae8a210c24123e0b88a0" }
  },
  {
    "type": "Feature",
    "geometry": { "type": "Point", "coordinates": [ 134.42908333333, 7.2862 ] },
    "properties": { "title": "Nagisan Maru", "_id": "5c7dae8a210c24123e0b88a5" }
  },
  {
    "type": "Feature",
    "geometry": { "type": "Point", "coordinates": [ 134.25328333333, 7.0762833333333 ] },
    "properties": { "title": "Ngedebus Wall", "_id": "5c7dae8a210c24123e0b88aa" }
  },
  {
    "type": "Feature",
    "geometry": { "type": "Point", "coordinates": [ -174.56888888889, -19.817777777778 ] },
    "properties": { "title": "Lafa Lafa 1", "_id": "5c7dae8a210c24123e0b885e" }
  },
  {
    "type": "Feature",
    "geometry": { "type": "Point", "coordinates": [ 159.87425, -9.3858833333333 ] },
    "properties": { "title": "Hirokawa Maru - Bonegi 1", "_id": "5c7dae8a210c24123e0b8863" }
  },
  {
    "type": "Feature",
    "geometry": { "type": "Point", "coordinates": [ 134.37631666667, 7.1964 ] },
    "properties": { "title": "Ngermeaus Island", "_id": "5c7dae8a210c24123e0b88af" }
  },
  {
    "type": "Feature",
    "geometry": { "type": "Point", "coordinates": [ 134.23031666667, 6.9754166666667 ] },
    "properties": { "title": "Peleliu Express", "_id": "5c7dae8a210c24123e0b88b4" }
  },
  {
    "type": "Feature",
    "geometry": { "type": "Point", "coordinates": [ 131.94781666667, 4.6534833333333 ] },
    "properties": { "title": "Pulo Anna", "_id": "5c7dae8a210c24123e0b88b9" }
  },
  {
    "type": "Feature",
    "geometry": { "type": "Point", "coordinates": [ 150.90408325195, -4.9377242743025 ] },
    "properties": { "title": "Fathers reef", "_id": "5c7dae8a210c24123e0b8872" }
  },
  {
    "type": "Feature",
    "geometry": { "type": "Point", "coordinates": [ 134.18486666667, 7.275 ] },
    "properties": { "title": "Shark City", "_id": "5c7dae8a210c24123e0b88be" }
  },
  {
    "type": "Feature",
    "geometry": { "type": "Point", "coordinates": [ 134.22185, 7.1377833333333 ] },
    "properties": { "title": "Temple of Doom", "_id": "5c7dae8a210c24123e0b88c3" }
  },
  {
    "type": "Feature",
    "geometry": { "type": "Point", "coordinates": [ 134.2817, 7.2857 ] },
    "properties": { "title": "Ulong Island", "_id": "5c7dae8a210c24123e0b88c8" }
  },
  {
    "type": "Feature",
    "geometry": { "type": "Point", "coordinates": [ 134.40763333333, 7.27115 ] },
    "properties": { "title": "Bichu Maru", "_id": "5c7dae8a210c24123e0b8881" }
  },
  {
    "type": "Feature",
    "geometry": { "type": "Point", "coordinates": [ 134.22688333333, 7.1285833333333 ] },
    "properties": { "title": "Virgin Blue Hole", "_id": "5c7dae8a210c24123e0b88cd" }
  },
  {
    "type": "Feature",
    "geometry": { "type": "Point", "coordinates": [ 134.37171666667, 7.24365 ] },
    "properties": { "title": "Cemetery Reef", "_id": "5c7dae8a210c24123e0b8886" }
  },
  {
    "type": "Feature",
    "geometry": { "type": "Point", "coordinates": [ 134.44515, 7.2463333333333 ] },
    "properties": { "title": "Zero", "_id": "5c7dae8a210c24123e0b88d2" }
  },
  {
    "type": "Feature",
    "geometry": { "type": "Point", "coordinates": [ 134.54308333333, 7.6466666666667 ] },
    "properties": { "title": "Devil Fish City", "_id": "5c7dae8a210c24123e0b888b" }
  },
  {
    "type": "Feature",
    "geometry": { "type": "Point", "coordinates": [ 174.15710806847, -35.23510390836 ] },
    "properties": { "title": "Cooks Cove", "_id": "5c7dae8a210c24123e0b88d7" }
  },
  {
    "type": "Feature",
    "geometry": { "type": "Point", "coordinates": [ 134.24116666667, 7.0996666666667 ] },
    "properties": { "title": "Ferns Wall", "_id": "5c7dae8a210c24123e0b8890" }
  },
  {
    "type": "Feature",
    "geometry": { "type": "Point", "coordinates": [ 174.34000277778, -35.165705555556 ] },
    "properties": { "title": "Hole in the Rock", "_id": "5c7dae8a210c24123e0b88dc" }
  },
  {
    "type": "Feature",
    "geometry": { "type": "Point", "coordinates": [ 177.13994979858, -37.495154189651 ] },
    "properties": { "title": "Lazens Reef", "_id": "5c7dae8a210c24123e0b88e1" }
  },
  {
    "type": "Feature",
    "geometry": { "type": "Point", "coordinates": [ 174.18909072876, -41.047770359385 ] },
    "properties": { "title": "Mikhail Lermontov", "_id": "5c7dae8a210c24123e0b88e6" }
  },
  {
    "type": "Feature",
    "geometry": { "type": "Point", "coordinates": [ 134.46583333333, 7.3278166666667 ] },
    "properties": { "title": "Helmet", "_id": "5c7dae8a210c24123e0b8895" }
  },
  {
    "type": "Feature",
    "geometry": { "type": "Point", "coordinates": [ 134.51983333333, 7.2636166666667 ] },
    "properties": { "title": "Short Dropoff", "_id": "5c7dae8a210c24123e0b88bf" }
  },
  {
    "type": "Feature",
    "geometry": { "type": "Point", "coordinates": [ 134.46366666667, 7.2844833333333 ] },
    "properties": { "title": "Lighthouse Channel", "_id": "5c7dae8a210c24123e0b889a" }
  },
  {
    "type": "Feature",
    "geometry": { "type": "Point", "coordinates": [ 134.40711666667, 7.4071166666667 ] },
    "properties": { "title": "Teshio Maru", "_id": "5c7dae8a210c24123e0b88c4" }
  },
  {
    "type": "Feature",
    "geometry": { "type": "Point", "coordinates": [ 134.37895, 7.2241333333333 ] },
    "properties": { "title": "Unidentified Maru", "_id": "5c7dae8a210c24123e0b88c9" }
  },
  {
    "type": "Feature",
    "geometry": { "type": "Point", "coordinates": [ 134.499, 7.5099833333333 ] },
    "properties": { "title": "Wakatake", "_id": "5c7dae8a210c24123e0b88ce" }
  },
  {
    "type": "Feature",
    "geometry": { "type": "Point", "coordinates": [ -57.541158333333, -38.114602777778 ] },
    "properties": { "title": "Restinga del Faro", "_id": "5c7dae8a210c24123e0b883e" }
  },
  {
    "type": "Feature",
    "geometry": { "type": "Point", "coordinates": [ 168.23956489563, -17.697343193694 ] },
    "properties": { "title": "Gotham City", "_id": "5c7dae8a210c24123e0b8848" }
  },
  {
    "type": "Feature",
    "geometry": { "type": "Point", "coordinates": [ 134.43475, 7.3248166666667 ] },
    "properties": { "title": "Malakal Harbor Reef", "_id": "5c7dae8a210c24123e0b889f" }
  },
  {
    "type": "Feature",
    "geometry": { "type": "Point", "coordinates": [ 134.41485, 7.2885 ] },
    "properties": { "title": "Mysterious Cove", "_id": "5c7dae8a210c24123e0b88a4" }
  },
  {
    "type": "Feature",
    "geometry": { "type": "Point", "coordinates": [ 134.2501, 7.07635 ] },
    "properties": { "title": "Ngedebus Corner", "_id": "5c7dae8a210c24123e0b88a9" }
  },
  {
    "type": "Feature",
    "geometry": { "type": "Point", "coordinates": [ 134.36455, 7.1113333333333 ] },
    "properties": { "title": "Ngerchong Outside", "_id": "5c7dae8a210c24123e0b88ae" }
  },
  {
    "type": "Feature",
    "geometry": { "type": "Point", "coordinates": [ 134.22341666667, 6.97355 ] },
    "properties": { "title": "Peleliu Cut", "_id": "5c7dae8a210c24123e0b88b3" }
  },
  {
    "type": "Feature",
    "geometry": { "type": "Point", "coordinates": [ 134.4287, 7.4413888888889 ] },
    "properties": { "title": "Pinchers Outside", "_id": "5c7dae8a210c24123e0b88b8" }
  },
  {
    "type": "Feature",
    "geometry": { "type": "Point", "coordinates": [ 134.42735, 7.3027 ] },
    "properties": { "title": "Sata", "_id": "5c7dae8a210c24123e0b88bd" }
  },
  {
    "type": "Feature",
    "geometry": { "type": "Point", "coordinates": [ 134.38273333333, 7.2676833333333 ] },
    "properties": { "title": "Soft Coral Arch", "_id": "5c7dae8a210c24123e0b88c2" }
  },
  {
    "type": "Feature",
    "geometry": { "type": "Point", "coordinates": [ 134.24456666667, 7.2835833333333 ] },
    "properties": { "title": "Ulong Channel", "_id": "5c7dae8a210c24123e0b88c7" }
  },
  {
    "type": "Feature",
    "geometry": { "type": "Point", "coordinates": [ 134.171662, 6.957008 ] },
    "properties": { "title": "USS Perry", "_id": "5c7dae8a210c24123e0b88cc" }
  },
  {
    "type": "Feature",
    "geometry": { "type": "Point", "coordinates": [ 134.50043333333, 7.2887 ] },
    "properties": { "title": "Zeke Zero", "_id": "5c7dae8a210c24123e0b88d1" }
  },
  {
    "type": "Feature",
    "geometry": { "type": "Point", "coordinates": [ 134.44515, 7.2463333333333 ] },
    "properties": { "title": "Zero Zeke", "_id": "5c7dae8a210c24123e0b88d3" }
  },
  {
    "type": "Feature",
    "geometry": { "type": "Point", "coordinates": [ 168.26239585876, -17.701840421412 ] },
    "properties": { "title": "Mele Reef", "_id": "5c7dae8a210c24123e0b884d" }
  },
  {
    "type": "Feature",
    "geometry": { "type": "Point", "coordinates": [ 174.73768830299, -35.475725471517 ] },
    "properties": { "title": "Nursery Cove", "_id": "5c7dae8a210c24123e0b88eb" }
  },
  {
    "type": "Feature",
    "geometry": { "type": "Point", "coordinates": [ 174.77554365993, -41.344878472349 ] },
    "properties": { "title": "Island Bay", "_id": "5c7dae8a210c24123e0b88dd" }
  },
  {
    "type": "Feature",
    "geometry": { "type": "Point", "coordinates": [ 168.30153465271, -17.753284770684 ] },
    "properties": { "title": "Tasman Flying Plane", "_id": "5c7dae8a210c24123e0b8857" }
  },
  {
    "type": "Feature",
    "geometry": { "type": "Point", "coordinates": [ 174.73689436913, -35.474694481121 ] },
    "properties": { "title": "Sand Garden", "_id": "5c7dae8a210c24123e0b88f0" }
  },
  {
    "type": "Feature",
    "geometry": { "type": "Point", "coordinates": [ -174.30777777778, -19.888333333333 ] },
    "properties": { "title": "Inga's", "_id": "5c7dae8a210c24123e0b885c" }
  },
  {
    "type": "Feature",
    "geometry": { "type": "Point", "coordinates": [ 165.92685699463, -22.023590793458 ] },
    "properties": { "title": "Corne de Tenia", "_id": "5c7dae8a210c24123e0b88fa" }
  },
  {
    "type": "Feature",
    "geometry": { "type": "Point", "coordinates": [ 159.68063592911, -9.2513576762597 ] },
    "properties": { "title": "Tembea caves", "_id": "5c7dae8a210c24123e0b8866" }
  },
  {
    "type": "Feature",
    "geometry": { "type": "Point", "coordinates": [ 173.72455358505, -42.420193473833 ] },
    "properties": { "title": "Lynch's Reef", "_id": "5c7dae8a210c24123e0b88e2" }
  },
  {
    "type": "Feature",
    "geometry": { "type": "Point", "coordinates": [ 166.2899, -22.2913 ] },
    "properties": { "title": "Ilot Signal", "_id": "5c7dae8a210c24123e0b8904" }
  },
  {
    "type": "Feature",
    "geometry": { "type": "Point", "coordinates": [ 166.23963333333, -22.336733333333 ] },
    "properties": { "title": "Le Humboldt", "_id": "5c7dae8a210c24123e0b8909" }
  },
  {
    "type": "Feature",
    "geometry": { "type": "Point", "coordinates": [ 175.84699630737, -36.709839677258 ] },
    "properties": { "title": "Old man rock", "_id": "5c7dae8a210c24123e0b88ec" }
  },
  {
    "type": "Feature",
    "geometry": { "type": "Point", "coordinates": [ 150.65075397491, -2.6331306349554 ] },
    "properties": { "title": "Lemus Island", "_id": "5c7dae8a210c24123e0b8875" }
  },
  {
    "type": "Feature",
    "geometry": { "type": "Point", "coordinates": [ 149.14009094238, -4.890519889057 ] },
    "properties": { "title": "The Crater", "_id": "5c7dae8a210c24123e0b887a" }
  },
  {
    "type": "Feature",
    "geometry": { "type": "Point", "coordinates": [ 134.44385, 7.35435 ] },
    "properties": { "title": "Arakababesang Island", "_id": "5c7dae8a210c24123e0b887f" }
  },
  {
    "type": "Feature",
    "geometry": { "type": "Point", "coordinates": [ 134.22230422497, 7.1378027600147 ] },
    "properties": { "title": "Blue Holes", "_id": "5c7dae8a210c24123e0b8884" }
  },
  {
    "type": "Feature",
    "geometry": { "type": "Point", "coordinates": [ 176.96579933167, -37.861166467986 ] },
    "properties": { "title": "Seafire wreck", "_id": "5c7dae8a210c24123e0b88f1" }
  },
  {
    "type": "Feature",
    "geometry": { "type": "Point", "coordinates": [ 134.37056666667, 7.1944333333333 ] },
    "properties": { "title": "Clam City", "_id": "5c7dae8a210c24123e0b8889" }
  },
  {
    "type": "Feature",
    "geometry": { "type": "Point", "coordinates": [ 138.0344581604, 9.4764699897241 ] },
    "properties": { "title": "Big Bend", "_id": "5c7dae8a210c24123e0b8918" }
  },
  {
    "type": "Feature",
    "geometry": { "type": "Point", "coordinates": [ 132.21761666667, 5.3244666666667 ] },
    "properties": { "title": "Dongosaro", "_id": "5c7dae8a210c24123e0b888e" }
  },
  {
    "type": "Feature",
    "geometry": { "type": "Point", "coordinates": [ 134.44445, 7.3201166666667 ] },
    "properties": { "title": "Hafa Dai", "_id": "5c7dae8a210c24123e0b8893" }
  },
  {
    "type": "Feature",
    "geometry": { "type": "Point", "coordinates": [ 174.73420143127, -35.481762615979 ] },
    "properties": { "title": "Rikoriko Cave", "_id": "5c7dae8a210c24123e0b88ef" }
  },
  {
    "type": "Feature",
    "geometry": { "type": "Point", "coordinates": [ 134.376, 7.1609 ] },
    "properties": { "title": "Jellyfish Lake", "_id": "5c7dae8a210c24123e0b8898" }
  },
  {
    "type": "Feature",
    "geometry": { "type": "Point", "coordinates": [ 132.30526666667, 4.3184166666667 ] },
    "properties": { "title": "Merir Island", "_id": "5c7dae8a210c24123e0b88a2" }
  },
  {
    "type": "Feature",
    "geometry": { "type": "Point", "coordinates": [ 134.43143333333, 7.3421333333333 ] },
    "properties": { "title": "Ngargol Island", "_id": "5c7dae8a210c24123e0b88a7" }
  },
  {
    "type": "Feature",
    "geometry": { "type": "Point", "coordinates": [ 134.4354, 7.2932 ] },
    "properties": { "title": "Peaceful Lagoon", "_id": "5c7dae8a210c24123e0b88b1" }
  },
  {
    "type": "Feature",
    "geometry": { "type": "Point", "coordinates": [ 134.21896219254, 6.9847029646829 ] },
    "properties": { "title": "Peleliu Wall", "_id": "5c7dae8a210c24123e0b88b6" }
  },
  {
    "type": "Feature",
    "geometry": { "type": "Point", "coordinates": [ 134.44406666667, 7.3440333333333 ] },
    "properties": { "title": "Ryuko Maru", "_id": "5c7dae8a210c24123e0b88bb" }
  },
  {
    "type": "Feature",
    "geometry": { "type": "Point", "coordinates": [ 134.22661666667, 7.31135 ] },
    "properties": { "title": "Siaes Cave", "_id": "5c7dae8a210c24123e0b88c0" }
  },
  {
    "type": "Feature",
    "geometry": { "type": "Point", "coordinates": [ 151.89, 7.3466666666667 ] },
    "properties": { "title": "Fujikawa Maru", "_id": "5c7dae8a210c24123e0b891d" }
  },
  {
    "type": "Feature",
    "geometry": { "type": "Point", "coordinates": [ 131.1201, 3.0039666666667 ] },
    "properties": { "title": "Tobi", "_id": "5c7dae8a210c24123e0b88c5" }
  },
  {
    "type": "Feature",
    "geometry": { "type": "Point", "coordinates": [ 176.08955383301, -38.674454161992 ] },
    "properties": { "title": "Waikato River", "_id": "5c7dae8a210c24123e0b88f4" }
  },
  {
    "type": "Feature",
    "geometry": { "type": "Point", "coordinates": [ 134.44165, 7.3332666666667 ] },
    "properties": { "title": "Urakami Maru", "_id": "5c7dae8a210c24123e0b88ca" }
  },
  {
    "type": "Feature",
    "geometry": { "type": "Point", "coordinates": [ 138.06570053101, 9.5479150538852 ] },
    "properties": { "title": "Kurrekurredutt Dropoff", "_id": "5c7dae8a210c24123e0b8927" }
  },
  {
    "type": "Feature",
    "geometry": { "type": "Point", "coordinates": [ 164.97446666667, -20.637016666667 ] },
    "properties": { "title": "Club Med Reef", "_id": "5c7dae8a210c24123e0b88f9" }
  },
  {
    "type": "Feature",
    "geometry": { "type": "Point", "coordinates": [ 158.29891204834, 6.9964595486932 ] },
    "properties": { "title": "Manta Road", "_id": "5c7dae8a210c24123e0b892c" }
  },
  {
    "type": "Feature",
    "geometry": { "type": "Point", "coordinates": [ 134.46133333333, 7.5478333333333 ] },
    "properties": { "title": "West Passage", "_id": "5c7dae8a210c24123e0b88cf" }
  },
  {
    "type": "Feature",
    "geometry": { "type": "Point", "coordinates": [ 138.18174362183, 9.515772260351 ] },
    "properties": { "title": "Peelack Channel", "_id": "5c7dae8a210c24123e0b8931" }
  },
  {
    "type": "Feature",
    "geometry": { "type": "Point", "coordinates": [ 166.42653333333, -22.42605 ] },
    "properties": { "title": "Epave du Snark", "_id": "5c7dae8a210c24123e0b88fe" }
  },
  {
    "type": "Feature",
    "geometry": { "type": "Point", "coordinates": [ 151.91115, 7.3668833333333 ] },
    "properties": { "title": "San Francisco Maru", "_id": "5c7dae8a210c24123e0b8936" }
  },
  {
    "type": "Feature",
    "geometry": { "type": "Point", "coordinates": [ 173.58444571495, -42.447563724158 ] },
    "properties": { "title": "Barneys' Rock", "_id": "5c7dae8a210c24123e0b88d4" }
  },
  {
    "type": "Feature",
    "geometry": { "type": "Point", "coordinates": [ 144.65825, 13.459416666667 ] },
    "properties": { "title": "SMS Cormoran", "_id": "5c7dae8a210c24123e0b893b" }
  },
  {
    "type": "Feature",
    "geometry": { "type": "Point", "coordinates": [ 173.0048418045, -43.869853373766 ] },
    "properties": { "title": "Flea Bay", "_id": "5c7dae8a210c24123e0b88d9" }
  },
  {
    "type": "Feature",
    "geometry": { "type": "Point", "coordinates": [ 166.4496088028, -22.475563215173 ] },
    "properties": { "title": "Le Calédonie Toho 5", "_id": "5c7dae8a210c24123e0b8908" }
  },
  {
    "type": "Feature",
    "geometry": { "type": "Point", "coordinates": [ 138.13393592834, 9.4945668609027 ] },
    "properties": { "title": "Val Bomer", "_id": "5c7dae8a210c24123e0b8940" }
  },
  {
    "type": "Feature",
    "geometry": { "type": "Point", "coordinates": [ 174.92551803589, -40.8797756455159 ] },
    "properties": { "title": "Kapiti Island", "_id": "5c7dae8a210c24123e0b88de" }
  },
  {
    "type": "Feature",
    "geometry": { "type": "Point", "coordinates": [ 151.84788333333, 7.30035 ] },
    "properties": { "title": "Yubai Maru", "_id": "5c7dae8a210c24123e0b8945" }
  },
  {
    "type": "Feature",
    "geometry": { "type": "Point", "coordinates": [ 167.40381666667, -22.514433333333 ] },
    "properties": { "title": "Passe de Gié", "_id": "5c7dae8a210c24123e0b890d" }
  },
  {
    "type": "Feature",
    "geometry": { "type": "Point", "coordinates": [ 174.73719477654, -35.467459702083 ] },
    "properties": { "title": "Mao Mao Arch", "_id": "5c7dae8a210c24123e0b88e3" }
  },
  {
    "type": "Feature",
    "geometry": { "type": "Point", "coordinates": [ 144.63277777778, 13.459722222222 ] },
    "properties": { "title": "American Tanker", "_id": "5c7dae8a210c24123e0b8912" }
  },
  {
    "type": "Feature",
    "geometry": { "type": "Point", "coordinates": [ -147.93296813965, -15.094002225318 ] },
    "properties": { "title": "Blue Lagoon", "_id": "5c7dae8a210c24123e0b894f" }
  },
  {
    "type": "Feature",
    "geometry": { "type": "Point", "coordinates": [ 151.87886111111, 7.35075 ] },
    "properties": { "title": "Betty Bomber", "_id": "5c7dae8a210c24123e0b8917" }
  },
  {
    "type": "Feature",
    "geometry": { "type": "Point", "coordinates": [ -149.83677864075, -17.475040422409 ] },
    "properties": { "title": "Edenpark", "_id": "5c7dae8a210c24123e0b8954" }
  },
  {
    "type": "Feature",
    "geometry": { "type": "Point", "coordinates": [ 151.87383055687, 7.3606047950834 ] },
    "properties": { "title": "Emily Flying Boat", "_id": "5c7dae8a210c24123e0b891c" }
  },
  {
    "type": "Feature",
    "geometry": { "type": "Point", "coordinates": [ -71.491605555556, -29.208202777778 ] },
    "properties": { "title": "Lynch Wreck", "_id": "5c7dae89210c24123e0b875e" }
  },
  {
    "type": "Feature",
    "geometry": { "type": "Point", "coordinates": [ -70.616962909698, -23.464023825888 ] },
    "properties": { "title": "Roca Chungungo", "_id": "5c7dae89210c24123e0b8763" }
  },
  {
    "type": "Feature",
    "geometry": { "type": "Point", "coordinates": [ -34.767683333333, -7.9456333333333 ] },
    "properties": { "title": "Alvarenga", "_id": "5c7dae89210c24123e0b876d" }
  },
  {
    "type": "Feature",
    "geometry": { "type": "Point", "coordinates": [ -34.973602294922, -5.9479972878127 ] },
    "properties": { "title": "Barrerinha", "_id": "5c7dae89210c24123e0b8777" }
  },
  {
    "type": "Feature",
    "geometry": { "type": "Point", "coordinates": [ 165.0848, -20.642133333333 ] },
    "properties": { "title": "Fonti Reef", "_id": "5c7dae8a210c24123e0b8900" }
  },
  {
    "type": "Feature",
    "geometry": { "type": "Point", "coordinates": [ -44.35015, -23.159316666667 ] },
    "properties": { "title": "California", "_id": "5c7dae89210c24123e0b8781" }
  },
  {
    "type": "Feature",
    "geometry": { "type": "Point", "coordinates": [ 167.3663, -22.559433333333 ] },
    "properties": { "title": "Kasmira Reef", "_id": "5c7dae8a210c24123e0b8905" }
  },
  {
    "type": "Feature",
    "geometry": { "type": "Point", "coordinates": [ -48.379669189453, -27.285222381052 ] },
    "properties": { "title": "Cordilheira do Sul", "_id": "5c7dae89210c24123e0b8786" }
  },
  {
    "type": "Feature",
    "geometry": { "type": "Point", "coordinates": [ 138.06923031807, 9.4454370389815 ] },
    "properties": { "title": "Bird Island", "_id": "5c7dae8a210c24123e0b8919" }
  },
  {
    "type": "Feature",
    "geometry": { "type": "Point", "coordinates": [ 144.64374303818, 13.444737360248 ] },
    "properties": { "title": "Gab Gab 2", "_id": "5c7dae8a210c24123e0b891e" }
  },
  {
    "type": "Feature",
    "geometry": { "type": "Point", "coordinates": [ 151.72305, 7.44925 ] },
    "properties": { "title": "IJN Fumitsuki", "_id": "5c7dae8a210c24123e0b8923" }
  },
  {
    "type": "Feature",
    "geometry": { "type": "Point", "coordinates": [ 138.12891483307, 9.4962176277708 ] },
    "properties": { "title": "Laura Marie Wreck", "_id": "5c7dae8a210c24123e0b8928" }
  },
  {
    "type": "Feature",
    "geometry": { "type": "Point", "coordinates": [ 138.130620718, 9.6006335679963 ] },
    "properties": { "title": "Miil Channel", "_id": "5c7dae8a210c24123e0b892d" }
  },
  {
    "type": "Feature",
    "geometry": { "type": "Point", "coordinates": [ 151.85555555556, 7.3844444444444 ] },
    "properties": { "title": "Heian Maru", "_id": "5c7dae8a210c24123e0b8921" }
  },
  {
    "type": "Feature",
    "geometry": { "type": "Point", "coordinates": [ 151.84621666667, 7.3704666666667 ] },
    "properties": { "title": "Kiyosumi Maru", "_id": "5c7dae8a210c24123e0b8926" }
  },
  {
    "type": "Feature",
    "geometry": { "type": "Point", "coordinates": [ 151.866, 7.294 ] },
    "properties": { "title": "Sankisan Maru", "_id": "5c7dae8a210c24123e0b8937" }
  },
  {
    "type": "Feature",
    "geometry": { "type": "Point", "coordinates": [ 138.19616317749, 9.5985495832859 ] },
    "properties": { "title": "Sunrise Reef", "_id": "5c7dae8a210c24123e0b893c" }
  },
  {
    "type": "Feature",
    "geometry": { "type": "Point", "coordinates": [ 138.20766448975, 9.5709593806128 ] },
    "properties": { "title": "Valley Of The Rays", "_id": "5c7dae8a210c24123e0b8941" }
  },
  {
    "type": "Feature",
    "geometry": { "type": "Point", "coordinates": [ 171.18587493896, 7.1261029978339 ] },
    "properties": { "title": "Pinnacle number 9", "_id": "5c7dae8a210c24123e0b8946" }
  },
  {
    "type": "Feature",
    "geometry": { "type": "Point", "coordinates": [ 151.91888888889, 7.3830555555556 ] },
    "properties": { "title": "Nippo Maru", "_id": "5c7dae8a210c24123e0b8930" }
  },
  {
    "type": "Feature",
    "geometry": { "type": "Point", "coordinates": [ 144.65820366669, 13.460286931453 ] },
    "properties": { "title": "Tokai Maru", "_id": "5c7dae8a210c24123e0b894b" }
  },
  {
    "type": "Feature",
    "geometry": { "type": "Point", "coordinates": [ 151.90085, 7.3042166666667 ] },
    "properties": { "title": "Rio de Janiero Maru", "_id": "5c7dae8a210c24123e0b8935" }
  },
  {
    "type": "Feature",
    "geometry": { "type": "Point", "coordinates": [ -151.03875160217, -16.695126882154 ] },
    "properties": { "title": "Cite corail", "_id": "5c7dae8a210c24123e0b8950" }
  },
  {
    "type": "Feature",
    "geometry": { "type": "Point", "coordinates": [ 151.76805555556, 7.4036111111111 ] },
    "properties": { "title": "Shinkoku Maru", "_id": "5c7dae8a210c24123e0b893a" }
  },
  {
    "type": "Feature",
    "geometry": { "type": "Point", "coordinates": [ -151.00548333333, -16.819366666667 ] },
    "properties": { "title": "Safari Aquarium", "_id": "5c7dae8a210c24123e0b8964" }
  },
  {
    "type": "Feature",
    "geometry": { "type": "Point", "coordinates": [ 151.8845, 7.3225 ] },
    "properties": { "title": "Unkai Maru", "_id": "5c7dae8a210c24123e0b893f" }
  },
  {
    "type": "Feature",
    "geometry": { "type": "Point", "coordinates": [ 179.95225, -16.759316666667 ] },
    "properties": { "title": "Barracuda Hole", "_id": "5c7dae8a210c24123e0b8982" }
  },
  {
    "type": "Feature",
    "geometry": { "type": "Point", "coordinates": [ -179.77540254593, -16.719316425512 ] },
    "properties": { "title": "Broken Reef", "_id": "5c7dae8a210c24123e0b8987" }
  },
  {
    "type": "Feature",
    "geometry": { "type": "Point", "coordinates": [ 179.94464166667, -16.780380555556 ] },
    "properties": { "title": "Fish Factory", "_id": "5c7dae8a210c24123e0b898c" }
  },
  {
    "type": "Feature",
    "geometry": { "type": "Point", "coordinates": [ 145.76226388889, 15.162646111111 ] },
    "properties": { "title": "Lau Lau Bay", "_id": "5c7dae8a210c24123e0b8949" }
  },
  {
    "type": "Feature",
    "geometry": { "type": "Point", "coordinates": [ 179.92928611111, -16.778980555556 ] },
    "properties": { "title": "Jerry's Jelly", "_id": "5c7dae8a210c24123e0b8991" }
  },
  {
    "type": "Feature",
    "geometry": { "type": "Point", "coordinates": [ 179.94739444444, -16.775577777778 ] },
    "properties": { "title": "Nuku Reef", "_id": "5c7dae8a210c24123e0b899b" }
  },
  {
    "type": "Feature",
    "geometry": { "type": "Point", "coordinates": [ 173.9349, -34.9748 ] },
    "properties": { "title": "Rainbow Warrior Wreck", "_id": "5c7dae8a210c24123e0b88ed" }
  },
  {
    "type": "Feature",
    "geometry": { "type": "Point", "coordinates": [ 172.96945810318, -43.888220189367 ] },
    "properties": { "title": "Te Ruahine Point", "_id": "5c7dae8a210c24123e0b88f2" }
  },
  {
    "type": "Feature",
    "geometry": { "type": "Point", "coordinates": [ -149.82810974121, -17.475695376575 ] },
    "properties": { "title": "Rotui", "_id": "5c7dae8a210c24123e0b8963" }
  },
  {
    "type": "Feature",
    "geometry": { "type": "Point", "coordinates": [ 166.83477401733, -22.343645643547 ] },
    "properties": { "title": "Aiguille de Prony", "_id": "5c7dae8a210c24123e0b88f7" }
  },
  {
    "type": "Feature",
    "geometry": { "type": "Point", "coordinates": [ 177.131742239, -17.360622736303 ] },
    "properties": { "title": "The Wall", "_id": "5c7dae8a210c24123e0b89af" }
  },
  {
    "type": "Feature",
    "geometry": { "type": "Point", "coordinates": [ -151.784999999999, -16.5014 ] },
    "properties": { "title": "Tapu", "_id": "5c7dae8a210c24123e0b8968" }
  },
  {
    "type": "Feature",
    "geometry": { "type": "Point", "coordinates": [ 179.94868888889, -16.770466666667 ] },
    "properties": { "title": "Yellow Tunnel", "_id": "5c7dae8a210c24123e0b89b4" }
  },
  {
    "type": "Feature",
    "geometry": { "type": "Point", "coordinates": [ 165.03936666667, -20.610066666667 ] },
    "properties": { "title": "Donga Hienga", "_id": "5c7dae8a210c24123e0b88fc" }
  },
  {
    "type": "Feature",
    "geometry": { "type": "Point", "coordinates": [ 159.80644226074, 18.856340982157 ] },
    "properties": { "title": "Aruntanga Passage", "_id": "5c7dae8a210c24123e0b89b9" }
  },
  {
    "type": "Feature",
    "geometry": { "type": "Point", "coordinates": [ -149.3328666687, -17.761765435716 ] },
    "properties": { "title": "Tetopa Grotto", "_id": "5c7dae8a210c24123e0b896d" }
  },
  {
    "type": "Feature",
    "geometry": { "type": "Point", "coordinates": [ 166.44390106201, -22.473976981728 ] },
    "properties": { "title": "La Dieppoise", "_id": "5c7dae8a210c24123e0b8906" }
  },
  {
    "type": "Feature",
    "geometry": { "type": "Point", "coordinates": [ 144.86125946045, -38.337886219344 ] },
    "properties": { "title": "#10 Channel Marker", "_id": "5c7dae8a210c24123e0b89be" }
  },
  {
    "type": "Feature",
    "geometry": { "type": "Point", "coordinates": [ 152.7113, -24.106483333333 ] },
    "properties": { "title": "Anchor Bommies", "_id": "5c7dae8a210c24123e0b89c8" }
  },
  {
    "type": "Feature",
    "geometry": { "type": "Point", "coordinates": [ 151.23077630997, -33.994157929812 ] },
    "properties": { "title": "Bare Island", "_id": "5c7dae8a210c24123e0b89cd" }
  },
  {
    "type": "Feature",
    "geometry": { "type": "Point", "coordinates": [ 165.13148333333, -20.59675 ] },
    "properties": { "title": "Pointe aux cachalots", "_id": "5c7dae8a210c24123e0b8910" }
  },
  {
    "type": "Feature",
    "geometry": { "type": "Point", "coordinates": [ 179.91168333333, -16.79815 ] },
    "properties": { "title": "Annie's Bommie", "_id": "5c7dae8a210c24123e0b8981" }
  },
  {
    "type": "Feature",
    "geometry": { "type": "Point", "coordinates": [ 144.77359722222, -38.356777777778 ] },
    "properties": { "title": "Blairgowrie Pier", "_id": "5c7dae8a210c24123e0b89dc" }
  },
  {
    "type": "Feature",
    "geometry": { "type": "Point", "coordinates": [ 177.36602783203, -16.948742903331 ] },
    "properties": { "title": "Blue Lagoon", "_id": "5c7dae8a210c24123e0b8986" }
  },
  {
    "type": "Feature",
    "geometry": { "type": "Point", "coordinates": [ 144.6242, 13.435516666667 ] },
    "properties": { "title": "Blue hole", "_id": "5c7dae8a210c24123e0b891a" }
  },
  {
    "type": "Feature",
    "geometry": { "type": "Point", "coordinates": [ 147.54541666667, -18.479333333333 ] },
    "properties": { "title": "Bowl Reef", "_id": "5c7dae8a210c24123e0b89e6" }
  },
  {
    "type": "Feature",
    "geometry": { "type": "Point", "coordinates": [ 179.39609527588, -16.830174956244 ] },
    "properties": { "title": "Dreamhouse", "_id": "5c7dae8a210c24123e0b898b" }
  },
  {
    "type": "Feature",
    "geometry": { "type": "Point", "coordinates": [ -151.711749999999, -16.5346166666669 ] },
    "properties": { "title": "Eagle-rays' station", "_id": "5c7dae8a210c24123e0b8953" }
  },
  {
    "type": "Feature",
    "geometry": { "type": "Point", "coordinates": [ 138.48036666667, -34.962883333333 ] },
    "properties": { "title": "Broken Bottom", "_id": "5c7dae8a210c24123e0b89eb" }
  },
  {
    "type": "Feature",
    "geometry": { "type": "Point", "coordinates": [ 138.12269210815, 9.4822493494125 ] },
    "properties": { "title": "Gabach Channel", "_id": "5c7dae8a210c24123e0b891f" }
  },
  {
    "type": "Feature",
    "geometry": { "type": "Point", "coordinates": [ 177.25805555556, -17.653333333333 ] },
    "properties": { "title": "Jackies Reef", "_id": "5c7dae8a210c24123e0b8990" }
  },
  {
    "type": "Feature",
    "geometry": { "type": "Point", "coordinates": [ -149.32582855225, -17.759476717531 ] },
    "properties": { "title": "Lagoon Hole", "_id": "5c7dae8a210c24123e0b8958" }
  },
  {
    "type": "Feature",
    "geometry": { "type": "Point", "coordinates": [ 115.33789515495, -33.629530117056 ] },
    "properties": { "title": "Busselton Jetty", "_id": "5c7dae8a210c24123e0b89f0" }
  },
  {
    "type": "Feature",
    "geometry": { "type": "Point", "coordinates": [ 179.90985555556, -16.788722222222 ] },
    "properties": { "title": "Mini White Wall", "_id": "5c7dae8a210c24123e0b8995" }
  },
  {
    "type": "Feature",
    "geometry": { "type": "Point", "coordinates": [ 158.11180114746, 6.8000946863066 ] },
    "properties": { "title": "Kehpara", "_id": "5c7dae8a210c24123e0b8924" }
  },
  {
    "type": "Feature",
    "geometry": { "type": "Point", "coordinates": [ 179.26672697067, -16.836110512496 ] },
    "properties": { "title": "Nuggets", "_id": "5c7dae8a210c24123e0b899a" }
  },
  {
    "type": "Feature",
    "geometry": { "type": "Point", "coordinates": [ 144.59636666667, -38.2995 ] },
    "properties": { "title": "Castle Rock", "_id": "5c7dae8a210c24123e0b89f5" }
  },
  {
    "type": "Feature",
    "geometry": { "type": "Point", "coordinates": [ -149.6311, -17.5686833333329 ] },
    "properties": { "title": "Radio Whisky", "_id": "5c7dae8a210c24123e0b8962" }
  },
  {
    "type": "Feature",
    "geometry": { "type": "Point", "coordinates": [ 130.895499999999, -12.511333333333 ] },
    "properties": { "title": "Catalina #4", "_id": "5c7dae8a210c24123e0b89fa" }
  },
  {
    "type": "Feature",
    "geometry": { "type": "Point", "coordinates": [ 179.93639444444, -16.777744444444 ] },
    "properties": { "title": "Sam's Point", "_id": "5c7dae8a210c24123e0b89a4" }
  },
  {
    "type": "Feature",
    "geometry": { "type": "Point", "coordinates": [ 152.14119315147, -32.717999664885 ] },
    "properties": { "title": "Cauliflower", "_id": "5c7dae8a210c24123e0b89ff" }
  },
  {
    "type": "Feature",
    "geometry": { "type": "Point", "coordinates": [ 177.06869959831, -17.650928295867 ] },
    "properties": { "title": "Sunset", "_id": "5c7dae8a210c24123e0b89a9" }
  },
  {
    "type": "Feature",
    "geometry": { "type": "Point", "coordinates": [ -148.2811832428, -15.003986897121 ] },
    "properties": { "title": "Teonai", "_id": "5c7dae8a210c24123e0b896c" }
  },
  {
    "type": "Feature",
    "geometry": { "type": "Point", "coordinates": [ 138.17556381226, 9.5062067139114 ] },
    "properties": { "title": "Semakai Reef", "_id": "5c7dae8a210c24123e0b8938" }
  },
  {
    "type": "Feature",
    "geometry": { "type": "Point", "coordinates": [ 153.57753753662, -28.195581556655 ] },
    "properties": { "title": "Cook Island", "_id": "5c7dae8a210c24123e0b8a09" }
  },
  {
    "type": "Feature",
    "geometry": { "type": "Point", "coordinates": [ 178.85197162628, -17.679925594685 ] },
    "properties": { "title": "The Pipeline", "_id": "5c7dae8a210c24123e0b89ae" }
  },
  {
    "type": "Feature",
    "geometry": { "type": "Point", "coordinates": [ -145.46198888889, -16.513588888889 ] },
    "properties": { "title": "The channel", "_id": "5c7dae8a210c24123e0b8971" }
  },
  {
    "type": "Feature",
    "geometry": { "type": "Point", "coordinates": [ 138.16114425659, 9.4959636641551 ] },
    "properties": { "title": "The Barge", "_id": "5c7dae8a210c24123e0b893d" }
  },
  {
    "type": "Feature",
    "geometry": { "type": "Point", "coordinates": [ 179.93298333333, -16.790758333333 ] },
    "properties": { "title": "Wise's Place", "_id": "5c7dae8a210c24123e0b89b3" }
  },
  {
    "type": "Feature",
    "geometry": { "type": "Point", "coordinates": [ 138.11101913452, 9.5927947569121 ] },
    "properties": { "title": "Vertigo", "_id": "5c7dae8a210c24123e0b8942" }
  },
  {
    "type": "Feature",
    "geometry": { "type": "Point", "coordinates": [ -159.7720348835, -21.199876834859 ] },
    "properties": { "title": "Alberto's", "_id": "5c7dae8a210c24123e0b89b8" }
  },
  {
    "type": "Feature",
    "geometry": { "type": "Point", "coordinates": [ -35.198178291321, -9.0419616332859 ] },
    "properties": { "title": "Gales de Maragogi", "_id": "5c7dae89210c24123e0b878b" }
  },
  {
    "type": "Feature",
    "geometry": { "type": "Point", "coordinates": [ 165.49, 11.606666666667 ] },
    "properties": { "title": "USS Saratoga CV-3", "_id": "5c7dae8a210c24123e0b8947" }
  },
  {
    "type": "Feature",
    "geometry": { "type": "Point", "coordinates": [ -44.623766666667, -23.18995 ] },
    "properties": { "title": "Ilha Comprida", "_id": "5c7dae89210c24123e0b8790" }
  },
  {
    "type": "Feature",
    "geometry": { "type": "Point", "coordinates": [ 153.34819793701, -27.099170807617 ] },
    "properties": { "title": "Curtin Wrecks", "_id": "5c7dae8a210c24123e0b8a13" }
  },
  {
    "type": "Feature",
    "geometry": { "type": "Point", "coordinates": [ -48.544818162918, -27.935858293737 ] },
    "properties": { "title": "Ilha do Coral", "_id": "5c7dae89210c24123e0b8795" }
  },
  {
    "type": "Feature",
    "geometry": { "type": "Point", "coordinates": [ -151.709966666669, -16.4935 ] },
    "properties": { "title": "Anau", "_id": "5c7dae8a210c24123e0b894c" }
  },
  {
    "type": "Feature",
    "geometry": { "type": "Point", "coordinates": [ -44.583633333333, -23.200916666667 ] },
    "properties": { "title": "Ilha dos Cocos", "_id": "5c7dae89210c24123e0b879a" }
  },
  {
    "type": "Feature",
    "geometry": { "type": "Point", "coordinates": [ -44.608097076416, -23.197805192756 ] },
    "properties": { "title": "Ilha dos Ratos", "_id": "5c7dae89210c24123e0b879f" }
  },
  {
    "type": "Feature",
    "geometry": { "type": "Point", "coordinates": [ -48.618042469025, -27.987049730485 ] },
    "properties": { "title": "Ilhota do Siriú", "_id": "5c7dae89210c24123e0b87a4" }
  },
  {
    "type": "Feature",
    "geometry": { "type": "Point", "coordinates": [ -151.77766799927, -16.455347871717 ] },
    "properties": { "title": "Haapiti", "_id": "5c7dae8a210c24123e0b8956" }
  },
  {
    "type": "Feature",
    "geometry": { "type": "Point", "coordinates": [ 115.65379500389, -31.61023719241 ] },
    "properties": { "title": "Alkimos Wreck", "_id": "5c7dae8a210c24123e0b89c7" }
  },
  {
    "type": "Feature",
    "geometry": { "type": "Point", "coordinates": [ -48.953333333333, -15.511111111111 ] },
    "properties": { "title": "Lago azul Pirenãpolis", "_id": "5c7dae89210c24123e0b87a9" }
  },
  {
    "type": "Feature",
    "geometry": { "type": "Point", "coordinates": [ -35.209808349609, -6.0558925572225 ] },
    "properties": { "title": "Lagoa do Bomfim", "_id": "5c7dae89210c24123e0b87ae" }
  },
  {
    "type": "Feature",
    "geometry": { "type": "Point", "coordinates": [ 151.2530708313, -33.827405061776 ] },
    "properties": { "title": "Balmoral Baths", "_id": "5c7dae8a210c24123e0b89cc" }
  },
  {
    "type": "Feature",
    "geometry": { "type": "Point", "coordinates": [ -146.07258796692, -14.434597094057 ] },
    "properties": { "title": "West Point", "_id": "5c7dae8a210c24123e0b8980" }
  },
  {
    "type": "Feature",
    "geometry": { "type": "Point", "coordinates": [ 178.97838950157, -17.59390659899 ] },
    "properties": { "title": "Black Wall", "_id": "5c7dae8a210c24123e0b8985" }
  },
  {
    "type": "Feature",
    "geometry": { "type": "Point", "coordinates": [ -149.61993333333, -17.61625 ] },
    "properties": { "title": "St Etienne Drop-Off", "_id": "5c7dae8a210c24123e0b8965" }
  },
  {
    "type": "Feature",
    "geometry": { "type": "Point", "coordinates": [ -179.82734084129, -16.732170368228 ] },
    "properties": { "title": "Coral Gardens", "_id": "5c7dae8a210c24123e0b898a" }
  },
  {
    "type": "Feature",
    "geometry": { "type": "Point", "coordinates": [ 115.77725172043, -32.02793423403 ] },
    "properties": { "title": "Bicton Baths", "_id": "5c7dae8a210c24123e0b89d6" }
  },
  {
    "type": "Feature",
    "geometry": { "type": "Point", "coordinates": [ 137.75051951408, -35.084842306116 ] },
    "properties": { "title": "Edithburgh Jetty", "_id": "5c7dae8a210c24123e0b8a27" }
  },
  {
    "type": "Feature",
    "geometry": { "type": "Point", "coordinates": [ -151.41863333333, -16.745966666667 ] },
    "properties": { "title": "Teavapiti pass", "_id": "5c7dae8a210c24123e0b896a" }
  },
  {
    "type": "Feature",
    "geometry": { "type": "Point", "coordinates": [ 179.93783888889, -16.787508333333 ] },
    "properties": { "title": "Jack's Place", "_id": "5c7dae8a210c24123e0b898f" }
  },
  {
    "type": "Feature",
    "geometry": { "type": "Point", "coordinates": [ 153.07645797729, -30.949126084278 ] },
    "properties": { "title": "Black Rock", "_id": "5c7dae8a210c24123e0b89db" }
  },
  {
    "type": "Feature",
    "geometry": { "type": "Point", "coordinates": [ -146.07361793518, -14.452218102442 ] },
    "properties": { "title": "The Break", "_id": "5c7dae8a210c24123e0b896f" }
  },
  {
    "type": "Feature",
    "geometry": { "type": "Point", "coordinates": [ -179.78892087936, -16.743338517906 ] },
    "properties": { "title": "Maria's Cove", "_id": "5c7dae8a210c24123e0b8994" }
  },
  {
    "type": "Feature",
    "geometry": { "type": "Point", "coordinates": [ 152.20250277778, -32.740905555556 ] },
    "properties": { "title": "Fingal Head", "_id": "5c7dae8a210c24123e0b8a31" }
  },
  {
    "type": "Feature",
    "geometry": { "type": "Point", "coordinates": [ -149.52598571777, -17.516707182173 ] },
    "properties": { "title": "The Faults of Arue", "_id": "5c7dae8a210c24123e0b8974" }
  },
  {
    "type": "Feature",
    "geometry": { "type": "Point", "coordinates": [ 179.10694444444, -17.074444444444 ] },
    "properties": { "title": "North Save-a-tack", "_id": "5c7dae8a210c24123e0b8999" }
  },
  {
    "type": "Feature",
    "geometry": { "type": "Point", "coordinates": [ 150.76503753662, -35.113449436504 ] },
    "properties": { "title": "Bowen Island", "_id": "5c7dae8a210c24123e0b89e5" }
  },
  {
    "type": "Feature",
    "geometry": { "type": "Point", "coordinates": [ -149.61997032166, -17.632325242506 ] },
    "properties": { "title": "The Spring", "_id": "5c7dae8a210c24123e0b8979" }
  },
  {
    "type": "Feature",
    "geometry": { "type": "Point", "coordinates": [ 179.92748333333, -16.794319444444 ] },
    "properties": { "title": "Pot Luck", "_id": "5c7dae8a210c24123e0b899e" }
  },
  {
    "type": "Feature",
    "geometry": { "type": "Point", "coordinates": [ 179.93672222222, -16.774338888889 ] },
    "properties": { "title": "Rainbows End 2", "_id": "5c7dae8a210c24123e0b89a3" }
  },
  {
    "type": "Feature",
    "geometry": { "type": "Point", "coordinates": [ 179.97041666667, -16.740083333333 ] },
    "properties": { "title": "Cabbage Patch", "_id": "5c7dae8a210c24123e0b8988" }
  },
  {
    "type": "Feature",
    "geometry": { "type": "Point", "coordinates": [ 177.22591666667, -17.656433333333 ] },
    "properties": { "title": "Stonehenge", "_id": "5c7dae8a210c24123e0b89a8" }
  },
  {
    "type": "Feature",
    "geometry": { "type": "Point", "coordinates": [ 150.90147614479, -34.597659726524 ] },
    "properties": { "title": "Bushrangers Bay", "_id": "5c7dae8a210c24123e0b89ef" }
  },
  {
    "type": "Feature",
    "geometry": { "type": "Point", "coordinates": [ 179.87636666667, -16.79445 ] },
    "properties": { "title": "Great White Wall", "_id": "5c7dae8a210c24123e0b898d" }
  },
  {
    "type": "Feature",
    "geometry": { "type": "Point", "coordinates": [ 144.71847474575, -38.317080516777 ] },
    "properties": { "title": "Franklin Point", "_id": "5c7dae8a210c24123e0b8a45" }
  },
  {
    "type": "Feature",
    "geometry": { "type": "Point", "coordinates": [ 144.88958358765, -38.498591946689 ] },
    "properties": { "title": "Cape Schank", "_id": "5c7dae8a210c24123e0b89f4" }
  },
  {
    "type": "Feature",
    "geometry": { "type": "Point", "coordinates": [ -179.79988574982, -16.759837823777 ] },
    "properties": { "title": "Long Beach Point", "_id": "5c7dae8a210c24123e0b8992" }
  },
  {
    "type": "Feature",
    "geometry": { "type": "Point", "coordinates": [ 130.909999999999, -12.496666666667 ] },
    "properties": { "title": "Catalina #3", "_id": "5c7dae8a210c24123e0b89f9" }
  },
  {
    "type": "Feature",
    "geometry": { "type": "Point", "coordinates": [ 177.25472222222, -17.648888888889 ] },
    "properties": { "title": "Tui's Reef", "_id": "5c7dae8a210c24123e0b89b2" }
  },
  {
    "type": "Feature",
    "geometry": { "type": "Point", "coordinates": [ 177.36871004105, -16.942092466021 ] },
    "properties": { "title": "Nanuya Island reef", "_id": "5c7dae8a210c24123e0b8997" }
  },
  {
    "type": "Feature",
    "geometry": { "type": "Point", "coordinates": [ 148.0582, -19.376333333333 ] },
    "properties": { "title": "Gothenburg Wreck", "_id": "5c7dae8a210c24123e0b8a4f" }
  },
  {
    "type": "Feature",
    "geometry": { "type": "Point", "coordinates": [ -109.44683074951, -27.145617317961 ] },
    "properties": { "title": "El moai", "_id": "5c7dae8a210c24123e0b89b7" }
  },
  {
    "type": "Feature",
    "geometry": { "type": "Point", "coordinates": [ 178.25317382812, -18.916679786649 ] },
    "properties": { "title": "Pacific voyager", "_id": "5c7dae8a210c24123e0b899c" }
  },
  {
    "type": "Feature",
    "geometry": { "type": "Point", "coordinates": [ 115.10055555556, -33.550555555556 ] },
    "properties": { "title": "H.M.A.S. Swan", "_id": "5c7dae8a210c24123e0b8a54" }
  },
  {
    "type": "Feature",
    "geometry": { "type": "Point", "coordinates": [ -159.76995348931, -21.201437256796 ] },
    "properties": { "title": "Mushroom Forest", "_id": "5c7dae8a210c24123e0b89bc" }
  },
  {
    "type": "Feature",
    "geometry": { "type": "Point", "coordinates": [ 145.66345, -14.663866666667 ] },
    "properties": { "title": "Cod Hole", "_id": "5c7dae8a210c24123e0b8a08" }
  },
  {
    "type": "Feature",
    "geometry": { "type": "Point", "coordinates": [ 151.16281986237, -34.067893953191 ] },
    "properties": { "title": "7th and 8th Reefs", "_id": "5c7dae8a210c24123e0b89c1" }
  },
  {
    "type": "Feature",
    "geometry": { "type": "Point", "coordinates": [ 145.86441666667, -16.039783333333 ] },
    "properties": { "title": "Agincourt Reef - Trigger Fish City", "_id": "5c7dae8a210c24123e0b89c6" }
  },
  {
    "type": "Feature",
    "geometry": { "type": "Point", "coordinates": [ 144.55387777778, -38.315863888889 ] },
    "properties": { "title": "HMAS J1 Submarine", "_id": "5c7dae8a210c24123e0b8a63" }
  },
  {
    "type": "Feature",
    "geometry": { "type": "Point", "coordinates": [ 145.67799210548, -16.962551046044 ] },
    "properties": { "title": "Crystal Cascades", "_id": "5c7dae8a210c24123e0b8a12" }
  },
  {
    "type": "Feature",
    "geometry": { "type": "Point", "coordinates": [ 152.92498, -31.40808 ] },
    "properties": { "title": "Bait Reef", "_id": "5c7dae8a210c24123e0b89cb" }
  },
  {
    "type": "Feature",
    "geometry": { "type": "Point", "coordinates": [ 179.85033333333, -16.79035 ] },
    "properties": { "title": "The Zoo", "_id": "5c7dae8a210c24123e0b89b0" }
  },
  {
    "type": "Feature",
    "geometry": { "type": "Point", "coordinates": [ 151.15341067314, -34.073217394088 ] },
    "properties": { "title": "Bass & Flinders", "_id": "5c7dae8a210c24123e0b89d0" }
  },
  {
    "type": "Feature",
    "geometry": { "type": "Point", "coordinates": [ -109.43996429443, -27.145464565009 ] },
    "properties": { "title": "Boya 2 hanga roa", "_id": "5c7dae8a210c24123e0b89b5" }
  },
  {
    "type": "Feature",
    "geometry": { "type": "Point", "coordinates": [ 151.230154, -33.774046 ] },
    "properties": { "title": "Itata", "_id": "5c7dae8a210c24123e0b8a6d" }
  },
  {
    "type": "Feature",
    "geometry": { "type": "Point", "coordinates": [ 148.78484845161, -37.819175118908 ] },
    "properties": { "title": "Beware Reef", "_id": "5c7dae8a210c24123e0b89d5" }
  },
  {
    "type": "Feature",
    "geometry": { "type": "Point", "coordinates": [ 153.62872481346, -28.612917857209 ] },
    "properties": { "title": "Julian Rocks - Hugos Trench", "_id": "5c7dae8a210c24123e0b8a72" }
  },
  {
    "type": "Feature",
    "geometry": { "type": "Point", "coordinates": [ -159.77250695229, -21.201137176935 ] },
    "properties": { "title": "Coral Gardens", "_id": "5c7dae8a210c24123e0b89ba" }
  },
  {
    "type": "Feature",
    "geometry": { "type": "Point", "coordinates": [ 114.60641384125, -28.678521283159 ] },
    "properties": { "title": "Drummond Cove", "_id": "5c7dae8a210c24123e0b8a21" }
  },
  {
    "type": "Feature",
    "geometry": { "type": "Point", "coordinates": [ 151.16136074066, -34.06884490958 ] },
    "properties": { "title": "4th-5th Reefs", "_id": "5c7dae8a210c24123e0b89bf" }
  },
  {
    "type": "Feature",
    "geometry": { "type": "Point", "coordinates": [ 115.5475, -32.0191 ] },
    "properties": { "title": "Lady Elizabeth Wreck", "_id": "5c7dae8a210c24123e0b8a7c" }
  },
  {
    "type": "Feature",
    "geometry": { "type": "Point", "coordinates": [ 151.99670791626, -23.429701457926 ] },
    "properties": { "title": "Fifth Point", "_id": "5c7dae8a210c24123e0b8a30" }
  },
  {
    "type": "Feature",
    "geometry": { "type": "Point", "coordinates": [ 146.20433807373, -16.936206427581 ] },
    "properties": { "title": "Briggs Reef - 360", "_id": "5c7dae8a210c24123e0b89e9" }
  },
  {
    "type": "Feature",
    "geometry": { "type": "Point", "coordinates": [ 145.864949999999, -16.243483333333 ] },
    "properties": { "title": "Barracuda Pass", "_id": "5c7dae8a210c24123e0b89ce" }
  },
  {
    "type": "Feature",
    "geometry": { "type": "Point", "coordinates": [ 145.80638333333, -16.017966666667 ] },
    "properties": { "title": "Light Reef - Phil`s Bommie", "_id": "5c7dae8a210c24123e0b8a86" }
  },
  {
    "type": "Feature",
    "geometry": { "type": "Point", "coordinates": [ 152.15789794922, -23.619676240352 ] },
    "properties": { "title": "Fitzroy Reef Lagoon", "_id": "5c7dae8a210c24123e0b8a35" }
  },
  {
    "type": "Feature",
    "geometry": { "type": "Point", "coordinates": [ 115.03160834312, -33.536717696686 ] },
    "properties": { "title": "Bunker bay", "_id": "5c7dae8a210c24123e0b89ee" }
  },
  {
    "type": "Feature",
    "geometry": { "type": "Point", "coordinates": [ 152.54413604736, -32.196532930063 ] },
    "properties": { "title": "Lobster Pot", "_id": "5c7dae8a210c24123e0b8a90" }
  },
  {
    "type": "Feature",
    "geometry": { "type": "Point", "coordinates": [ 146.26810491085, -16.730901452406 ] },
    "properties": { "title": "Flynn Reef - Ski Slop", "_id": "5c7dae8a210c24123e0b8a3f" }
  },
  {
    "type": "Feature",
    "geometry": { "type": "Point", "coordinates": [ 130.893783333329, -12.500616666667 ] },
    "properties": { "title": "Catalina #2", "_id": "5c7dae8a210c24123e0b89f8" }
  },
  {
    "type": "Feature",
    "geometry": { "type": "Point", "coordinates": [ 145.56138038635, -16.390756798082 ] },
    "properties": { "title": "Low Isles", "_id": "5c7dae8a210c24123e0b8a95" }
  },
  {
    "type": "Feature",
    "geometry": { "type": "Point", "coordinates": [ 140.53379952908, -37.732626127021 ] },
    "properties": { "title": "Fossils Cave", "_id": "5c7dae8a210c24123e0b8a44" }
  },
  {
    "type": "Feature",
    "geometry": { "type": "Point", "coordinates": [ 144.63835, -38.285183333333 ] },
    "properties": { "title": "Boarfish Reef", "_id": "5c7dae8a210c24123e0b89e2" }
  },
  {
    "type": "Feature",
    "geometry": { "type": "Point", "coordinates": [ 151.26577377319, -33.958382723208 ] },
    "properties": { "title": "Magic Point", "_id": "5c7dae8a210c24123e0b8a9a" }
  },
  {
    "type": "Feature",
    "geometry": { "type": "Point", "coordinates": [ 115.7322871685, -31.825721422611 ] },
    "properties": { "title": "Boy in the boat reef", "_id": "5c7dae8a210c24123e0b89e7" }
  },
  {
    "type": "Feature",
    "geometry": { "type": "Point", "coordinates": [ 151.90718650818, -23.435410987326 ] },
    "properties": { "title": "Gorgonia Hole", "_id": "5c7dae8a210c24123e0b8a4e" }
  },
  {
    "type": "Feature",
    "geometry": { "type": "Point", "coordinates": [ 152.93691, -31.44437 ] },
    "properties": { "title": "Cod Hole", "_id": "5c7dae8a210c24123e0b8a07" }
  },
  {
    "type": "Feature",
    "geometry": { "type": "Point", "coordinates": [ 145.99388122559, -16.767069945239 ] },
    "properties": { "title": "Green Island - New York", "_id": "5c7dae8a210c24123e0b8a53" }
  },
  {
    "type": "Feature",
    "geometry": { "type": "Point", "coordinates": [ 151.2934756279, -33.781269709912 ] },
    "properties": { "title": "Harbord", "_id": "5c7dae8a210c24123e0b8a58" }
  },
  {
    "type": "Feature",
    "geometry": { "type": "Point", "coordinates": [ 151.90888166428, -23.444959131914 ] },
    "properties": { "title": "Coral Gardens", "_id": "5c7dae8a210c24123e0b8a0c" }
  },